{
   "type": "FeatureCollection",
   "features": [
  {
    "type": "Feature",
    "geometry": {
       "type": "Point",
       "coordinates":  [ 144.9656352773,-37.8167538084 ]
    },
    "properties": {
    "name":"Issus",
    "image":"https://b.zmtcdn.com/data/pictures/5/16573525/76ea676329ceb23eb152095fcb584b91_featured_v2.jpg",
    "rating":"3.2",
    "url":"https://www.zomato.com/melbourne/issus-1-cbd/info"
    }
  },
  {
    "type": "Feature",
    "geometry": {
       "type": "Point",
       "coordinates":  [ 144.9471246824,-37.8187810191 ]
    },
    "properties": {
    "name":"De Gusto Café",
    "image":"https://b.zmtcdn.com/data/pictures/9/16573399/5e289bd845d70415115135281bdead7c_featured_v2.jpg",
    "rating":"3.7",
    "url":"https://www.zomato.com/melbourne/de-gusto-café-docklands/info"
    }
  },
  {
    "type": "Feature",
    "geometry": {
       "type": "Point",
       "coordinates":  [ 144.9614107981,-37.8136228318 ]
    },
    "properties": {
    "name":"Blok M",
    "image":"https://b.zmtcdn.com/data/pictures/8/16573718/b911343057b345a247b96b17bf84037b_featured_v2.jpg",
    "rating":"4.1",
    "url":"https://www.zomato.com/melbourne/blok-m-1-cbd/info"
    }
  },
  {
    "type": "Feature",
    "geometry": {
       "type": "Point",
       "coordinates":  [ 144.9576567113,-37.8175703673 ]
    },
    "properties": {
    "name":"Cafenatics",
    "image":"https://b.zmtcdn.com/data/pictures/chains/0/16573750/7d0f485bf12371ae2c5954507a93a18d_featured_v2.png",
    "rating":"3.9",
    "url":"https://www.zomato.com/melbourne/cafenatics-10-cbd/info"
    }
  },
  {
    "type": "Feature",
    "geometry": {
       "type": "Point",
       "coordinates":  [ 144.9658515304,-37.8169852957 ]
    },
    "properties": {
    "name":"Journal Canteen",
    "image":"https://b.zmtcdn.com/data/pictures/5/16573875/93e4fd0814868d23fb7836a39f9443ee_featured_v2.jpg",
    "rating":"4.2",
    "url":"https://www.zomato.com/melbourne/journal-canteen-1-cbd/info"
    }
  },
  {
    "type": "Feature",
    "geometry": {
       "type": "Point",
       "coordinates":  [ 144.9572979659,-37.815024782 ]
    },
    "properties": {
    "name":"Little Cupcakes",
    "image":"https://b.zmtcdn.com/data/pictures/chains/6/16573966/20e302493fd6ad03b2a852bd9c58d16b_featured_v2.jpg",
    "rating":"4.1",
    "url":"https://www.zomato.com/melbourne/little-cupcakes-4-cbd/info"
    }
  },
  {
    "type": "Feature",
    "geometry": {
       "type": "Point",
       "coordinates":  [ 144.9724316597,-37.8129778675 ]
    },
    "properties": {
    "name":"Liaison Cafe",
    "image":"https://b.zmtcdn.com/data/pictures/0/16573900/9c48e54d36b0871e407a8e556a6fe6e1_featured_v2.jpg",
    "rating":"3.8",
    "url":"https://www.zomato.com/melbourne/liaison-cafe-1-cbd/info"
    }
  },
  {
    "type": "Feature",
    "geometry": {
       "type": "Point",
       "coordinates":  [ 144.9626938999,-37.8135600573 ]
    },
    "properties": {
    "name":"Tropicana Juice Food Bar",
    "image":"https://b.zmtcdn.com/data/pictures/chains/3/16573933/d43f8ff78a5176b3d5d2b1c02f02b87e_featured_v2.jpg",
    "rating":"4.4",
    "url":"https://www.zomato.com/melbourne/tropicana-juice-food-bar-2-cbd/info"
    }
  },
  {
    "type": "Feature",
    "geometry": {
       "type": "Point",
       "coordinates":  [ 144.9574065954,-37.818059027 ]
    },
    "properties": {
    "name":"Feast@520",
    "image":"https://b.zmtcdn.com/data/pictures/3/16574063/e246b449657ae0116061f7f513d875d7_featured_v2.jpg",
    "rating":"3.3",
    "url":"https://www.zomato.com/melbourne/feast-3-cbd/info"
    }
  },
  {
    "type": "Feature",
    "geometry": {
       "type": "Point",
       "coordinates":  [ 144.9729479849,-37.8142542821 ]
    },
    "properties": {
    "name":"Sofi's Lounge",
    "image":"https://b.zmtcdn.com/data/pictures/4/16574174/021caf0ccdd104a27ff214ef2baa23f5_featured_v2.jpg",
    "rating":"3.7",
    "url":"https://www.zomato.com/SofisLounge/info"
    }
  },
  {
    "type": "Feature",
    "geometry": {
       "type": "Point",
       "coordinates":  [ 144.9601300433,-37.816328442 ]
    },
    "properties": {
    "name":"Cafe Intimo",
    "image":"https://b.zmtcdn.com/data/pictures/chains/8/16574248/9a26f109eb3579e46460aa37f0a7461a_featured_v2.jpg",
    "rating":"3.8",
    "url":"https://www.zomato.com/melbourne/cafe-intimo-1-cbd/info"
    }
  },
  {
    "type": "Feature",
    "geometry": {
       "type": "Point",
       "coordinates":  [ 144.956978783,-37.8168515417 ]
    },
    "properties": {
    "name":"Bambini Barrista",
    "image":"https://b.zmtcdn.com/data/pictures/5/16574265/971971e73a56ca6134acea25a6f03062_featured_v2.jpg",
    "rating":"3.8",
    "url":"https://www.zomato.com/melbourne/bambini-barrista-1-cbd/info"
    }
  },
  {
    "type": "Feature",
    "geometry": {
       "type": "Point",
       "coordinates":  [ 144.956978783,-37.8168515417 ]
    },
    "properties": {
    "name":"Bambini Barrista",
    "image":"https://b.zmtcdn.com/data/pictures/5/16574265/971971e73a56ca6134acea25a6f03062_featured_v2.jpg",
    "rating":"3.8",
    "url":"https://www.zomato.com/melbourne/bambini-barrista-1-cbd/info"
    }
  },
  {
    "type": "Feature",
    "geometry": {
       "type": "Point",
       "coordinates":  [ 144.954597652,-37.818827898 ]
    },
    "properties": {
    "name":"Perkup Cafe and Burger Bar",
    "image":"https://b.zmtcdn.com/data/pictures/chains/6/16574216/e311bdedc5970db7adddb994a8ebf244_featured_v2.png",
    "rating":"4.0",
    "url":"https://www.zomato.com/melbourne/perkup-cafe-and-burger-bar-1-cbd/info"
    }
  },
  {
    "type": "Feature",
    "geometry": {
       "type": "Point",
       "coordinates":  [ 144.9602336437,-37.8152345557 ]
    },
    "properties": {
    "name":"Café Felice",
    "image":"https://b.zmtcdn.com/data/pictures/4/16574244/dc49327a9d42ac10eaf3e60f70c0bb25_featured_v2.jpg",
    "rating":"3.4",
    "url":"https://www.zomato.com/melbourne/caf-felice-1-cbd/info"
    }
  },
  {
    "type": "Feature",
    "geometry": {
       "type": "Point",
       "coordinates":  [ 144.9656195194,-37.8167246738 ]
    },
    "properties": {
    "name":"Yen Sushi Noodle",
    "image":"https://b.zmtcdn.com/data/pictures/9/16574399/39219eeaa0c793dbb5b8548402b20c1a_featured_v2.jpg",
    "rating":"3.8",
    "url":"https://www.zomato.com/melbourne/yen-sushi-noodle-1-cbd/info"
    }
  },
  {
    "type": "Feature",
    "geometry": {
       "type": "Point",
       "coordinates":  [ 144.973744601,-37.8135921067 ]
    },
    "properties": {
    "name":"Howitt House",
    "image":"https://b.zmtcdn.com/data/pictures/5/16529685/f7b5f8679551778ece8316a38fa89da8_featured_v2.jpg",
    "rating":"3.7",
    "url":"https://www.zomato.com/melbourne/howitt-house-1-cbd/info"
    }
  },
  {
    "type": "Feature",
    "geometry": {
       "type": "Point",
       "coordinates":  [ 144.9604472145,-37.8171473893 ]
    },
    "properties": {
    "name":"Subway",
    "image":"https://b.zmtcdn.com/data/pictures/chains/9/16583719/6e20a9be99fac9e1c0b214aa2319a25a_featured_v2.jpg",
    "rating":"3.3",
    "url":"https://www.zomato.com/melbourne/subway-37-cbd/info"
    }
  },
  {
    "type": "Feature",
    "geometry": {
       "type": "Point",
       "coordinates":  [ 144.9714000151,-37.8151654258 ]
    },
    "properties": {
    "name":"Sushi Land",
    "image":"https://b.zmtcdn.com/data/pictures/0/16529700/eae2da24cde94ce23de0f5124d8ba143_featured_v2.jpg",
    "rating":"3.3",
    "url":"https://www.zomato.com/melbourne/sushi-land-1-cbd/info"
    }
  },
  {
    "type": "Feature",
    "geometry": {
       "type": "Point",
       "coordinates":  [ 144.9622292072,-37.8216543505 ]
    },
    "properties": {
    "name":"Bluebag",
    "image":"https://b.zmtcdn.com/data/pictures/chains/1/16529671/54cee811fa9b901d1141be45b431a1d7_featured_v2.jpg",
    "rating":"3.5",
    "url":"https://www.zomato.com/melbourne/bluebag-southbank/info"
    }
  },
  {
    "type": "Feature",
    "geometry": {
       "type": "Point",
       "coordinates":  [ 144.960218221,-37.8163072531 ]
    },
    "properties": {
    "name":"Little Colin",
    "image":"https://b.zmtcdn.com/data/pictures/7/16529677/7543078d5aac32d74cc2a8a3f237ecef_featured_v2.jpg",
    "rating":"3.6",
    "url":"https://www.zomato.com/melbourne/little-colin-1-cbd/info"
    }
  },
  {
    "type": "Feature",
    "geometry": {
       "type": "Point",
       "coordinates":  [ 144.9577790871,-37.8182264154 ]
    },
    "properties": {
    "name":"Bonnie Coffee Co.",
    "image":"https://b.zmtcdn.com/data/pictures/chains/0/16529680/4f2c6d0d2d0923eebdc12be32ee0f5cd_featured_v2.jpg",
    "rating":"3.9",
    "url":"https://www.zomato.com/melbourne/bonnie-coffee-co-2-cbd/info"
    }
  },
  {
    "type": "Feature",
    "geometry": {
       "type": "Point",
       "coordinates":  [ 144.9663252756,-37.8084147497 ]
    },
    "properties": {
    "name":"Blu Point",
    "image":"https://b.zmtcdn.com/data/pictures/9/16570879/3831a8c3644210f0b73e5ae9768305c0_featured_v2.jpg",
    "rating":"3.5",
    "url":"https://www.zomato.com/melbourne/blu-point-1-cbd/info"
    }
  },
  {
    "type": "Feature",
    "geometry": {
       "type": "Point",
       "coordinates":  [ 144.9643947557,-37.8154273775 ]
    },
    "properties": {
    "name":"Brown Sugar Café",
    "image":"https://b.zmtcdn.com/data/pictures/2/16570932/9f941585ea5e908b5f306dd142433a85_featured_v2.JPG",
    "rating":"3.8",
    "url":"https://www.zomato.com/melbourne/brown-sugar-caf-1-cbd/info"
    }
  },
  {
    "type": "Feature",
    "geometry": {
       "type": "Point",
       "coordinates":  [ 144.9643263593,-37.8152999775 ]
    },
    "properties": {
    "name":"Café Segovia",
    "image":"https://b.zmtcdn.com/data/pictures/5/16571015/8aade4fddc83f8d7db604ec8390e2c01_featured_v2.jpg",
    "rating":"2.8",
    "url":"https://www.zomato.com/melbourne/caf-segovia-1-cbd/info"
    }
  },
  {
    "type": "Feature",
    "geometry": {
       "type": "Point",
       "coordinates":  [ 144.9654833973,-37.8164394189 ]
    },
    "properties": {
    "name":"Aix Café Creperie Salon",
    "image":"https://b.zmtcdn.com/data/pictures/chains/5/16570705/2f8ec6cd2e81fd384a02ce154b65e8ae_featured_v2.jpg",
    "rating":"4.2",
    "url":"https://www.zomato.com/melbourne/aix-caf-creperie-salon-1-cbd/info"
    }
  },
  {
    "type": "Feature",
    "geometry": {
       "type": "Point",
       "coordinates":  [ 144.963982366,-37.8217290361 ]
    },
    "properties": {
    "name":"The Bond Store",
    "image":"https://b.zmtcdn.com/data/pictures/5/16570905/f16f151a80a1588fc84a9405f9c2aaa9_featured_v2.jpg",
    "rating":"4.3",
    "url":"https://www.zomato.com/melbourne/the-bond-store-southbank/info"
    }
  },
  {
    "type": "Feature",
    "geometry": {
       "type": "Point",
       "coordinates":  [ 144.9642965198,-37.8150141873 ]
    },
    "properties": {
    "name":"Caffé E Torta",
    "image":"https://b.zmtcdn.com/data/pictures/1/16571041/536be48f62b7b723c30602e11be7efd6_featured_v2.jpg",
    "rating":"4.0",
    "url":"https://www.zomato.com/melbourne/caff-e-torta-1-cbd/info"
    }
  },
  {
    "type": "Feature",
    "geometry": {
       "type": "Point",
       "coordinates":  [ 144.9597914144,-37.8135266835 ]
    },
    "properties": {
    "name":"Caterina's Cucina é Bar",
    "image":"https://b.zmtcdn.com/data/pictures/1/16571071/1ba26ae08ee210acf9f64b6f7be3eeeb_featured_v2.jpg",
    "rating":"4.2",
    "url":"https://www.zomato.com/melbourne/caterinas-cucina-bar-1-cbd/info"
    }
  },
  {
    "type": "Feature",
    "geometry": {
       "type": "Point",
       "coordinates":  [ 144.9657033384,-37.8168465093 ]
    },
    "properties": {
    "name":"Centro Espresso Caffe",
    "image":"https://b.zmtcdn.com/data/pictures/5/16571085/a210ec773666549eddb5145017a1a45f_featured_v2.jpg",
    "rating":"3.6",
    "url":"https://www.zomato.com/melbourne/centro-espresso-caffe-1-cbd/info"
    }
  },
  {
    "type": "Feature",
    "geometry": {
       "type": "Point",
       "coordinates":  [ 144.9595396221,-37.8067647319 ]
    },
    "properties": {
    "name":"Coffea Cafe",
    "image":"https://b.zmtcdn.com/data/pictures/8/16571148/a0563ba641d0bafe3bf7bce86b030e3a_featured_v2.jpg",
    "rating":"3.8",
    "url":"https://www.zomato.com/melbourne/coffea-cafe-1-cbd/info"
    }
  },
  {
    "type": "Feature",
    "geometry": {
       "type": "Point",
       "coordinates":  [ 144.9693494663,-37.8101023441 ]
    },
    "properties": {
    "name":"Country Bred",
    "image":"https://b.zmtcdn.com/data/pictures/9/16571309/5d699e4df5b4bbcfbad8c6262cf1d8ef_featured_v2.jpg",
    "rating":"3.1",
    "url":"https://www.zomato.com/melbourne/country-bred-1-cbd/info"
    }
  },
  {
    "type": "Feature",
    "geometry": {
       "type": "Point",
       "coordinates":  [ 144.9552940205,-37.8122476075 ]
    },
    "properties": {
    "name":"Frescati's Fine Foods",
    "image":"https://b.zmtcdn.com/data/pictures/5/16571375/cf7aa93206137268eb245bb312f87cf8_featured_v2.jpg",
    "rating":"3.1",
    "url":"https://www.zomato.com/melbourne/frescatis-fine-foods-1-cbd/info"
    }
  },
  {
    "type": "Feature",
    "geometry": {
       "type": "Point",
       "coordinates":  [ 144.9685142934,-37.8225142889 ]
    },
    "properties": {
    "name":"NGV Garden Restaurant",
    "image":"https://b.zmtcdn.com/data/pictures/0/16571390/02c82e9d962495f1c7231fabc04c7b11_featured_v2.jpg",
    "rating":"3.0",
    "url":"https://www.zomato.com/melbourne/ngv-garden-restaurant-southbank/info"
    }
  },
  {
    "type": "Feature",
    "geometry": {
       "type": "Point",
       "coordinates":  [ 144.9644359946,-37.8147601801 ]
    },
    "properties": {
    "name":"Gordon's Cafe & Bar",
    "image":"https://b.zmtcdn.com/data/pictures/chains/0/16571430/aff1acb2b78db33f9f0ccb17587a0324_featured_v2.jpg",
    "rating":"3.9",
    "url":"https://www.zomato.com/melbourne/gordons-cafe-bar-1-cbd/info"
    }
  },
  {
    "type": "Feature",
    "geometry": {
       "type": "Point",
       "coordinates":  [ 144.963343665,-37.8140357649 ]
    },
    "properties": {
    "name":"Federal Coffee",
    "image":"https://b.zmtcdn.com/data/pictures/6/16571326/0f82ec2dc17c06a1a2a5cb20f0407560_featured_v2.jpg",
    "rating":"3.9",
    "url":"https://www.zomato.com/melbourne/federal-coffee-1-cbd/info"
    }
  },
  {
    "type": "Feature",
    "geometry": {
       "type": "Point",
       "coordinates":  [ 144.9640380219,-37.8148409646 ]
    },
    "properties": {
    "name":"Gourmet Curry Hut",
    "image":"https://b.zmtcdn.com/data/pictures/2/16571432/d58c84043606c6cc627a610823e430d0_featured_v2.jpg",
    "rating":"3.4",
    "url":"https://www.zomato.com/melbourne/gourmet-curry-hut-1-cbd/info"
    }
  },
  {
    "type": "Feature",
    "geometry": {
       "type": "Point",
       "coordinates":  [ 144.958909303,-37.8073935919 ]
    },
    "properties": {
    "name":"Invita",
    "image":"https://b.zmtcdn.com/data/pictures/4/16571574/372711940dc1efd10b8fa191519bfa81_featured_v2.JPG",
    "rating":"3.9",
    "url":"https://www.zomato.com/melbourne/invita-1-cbd/info"
    }
  },
  {
    "type": "Feature",
    "geometry": {
       "type": "Point",
       "coordinates":  [ 144.967901744,-37.8105163565 ]
    },
    "properties": {
    "name":"The J Walk Cafe",
    "image":"https://b.zmtcdn.com/data/pictures/4/16571584/1f1761ac271b62ed14ba2317b797014b_featured_v2.jpg",
    "rating":"3.5",
    "url":"https://www.zomato.com/melbourne/the-j-walk-cafe-1-cbd/info"
    }
  },
  {
    "type": "Feature",
    "geometry": {
       "type": "Point",
       "coordinates":  [ 144.9605015293,-37.823663153 ]
    },
    "properties": {
    "name":"Mesh",
    "image":"https://b.zmtcdn.com/data/pictures/9/16571879/198d98df5ce0a5bb79a101a16cfdcef7_featured_v2.jpg",
    "rating":"3.3",
    "url":"https://www.zomato.com/melbourne/mesh-southbank/info"
    }
  },
  {
    "type": "Feature",
    "geometry": {
       "type": "Point",
       "coordinates":  [ 144.9646871164,-37.8095150942 ]
    },
    "properties": {
    "name":"Mr Tulk",
    "image":"https://b.zmtcdn.com/data/pictures/2/16571942/c16f8d9ad7ae810fedff6983f00cff2a_featured_v2.jpg",
    "rating":"4.1",
    "url":"https://www.zomato.com/melbourne/mr-tulk-1-cbd/info"
    }
  },
  {
    "type": "Feature",
    "geometry": {
       "type": "Point",
       "coordinates":  [ 144.954957068,-37.8150923228 ]
    },
    "properties": {
    "name":"SUD Food And Wine",
    "image":"https://b.zmtcdn.com/data/pictures/chains/2/16572212/d67da9d11590c44fae963605d5c59300_featured_v2.jpg",
    "rating":"4.3",
    "url":"https://www.zomato.com/melbourne/sud-food-and-wine-cbd/info"
    }
  },
  {
    "type": "Feature",
    "geometry": {
       "type": "Point",
       "coordinates":  [ 144.9685810134,-37.8136034962 ]
    },
    "properties": {
    "name":"Postal Hall",
    "image":"https://b.zmtcdn.com/data/pictures/2/16572142/29050b581a00512b823821b1cda81dea_featured_v2.jpg",
    "rating":"3.8",
    "url":"https://www.zomato.com/melbourne/postal-hall-1-cbd/info"
    }
  },
  {
    "type": "Feature",
    "geometry": {
       "type": "Point",
       "coordinates":  [ 144.9674635381,-37.8141051607 ]
    },
    "properties": {
    "name":"Pizza al Taglio Stellini Bar",
    "image":"https://b.zmtcdn.com/data/pictures/7/16572397/a0ba591a5d7c62f56654a24926038a12_featured_v2.jpg",
    "rating":"4.1",
    "url":"https://www.zomato.com/melbourne/pizza-al-taglio-stellini-bar-1-cbd/info"
    }
  },
  {
    "type": "Feature",
    "geometry": {
       "type": "Point",
       "coordinates":  [ 144.9594259635,-37.8165088125 ]
    },
    "properties": {
    "name":"Terrace Deli",
    "image":"https://b.zmtcdn.com/data/pictures/3/16572483/b0241b9671f200f39b772fa300cc50af_featured_v2.jpg",
    "rating":"3.1",
    "url":"https://www.zomato.com/melbourne/terrace-deli-1-cbd/info"
    }
  },
  {
    "type": "Feature",
    "geometry": {
       "type": "Point",
       "coordinates":  [ 144.9633222073,-37.8167169928 ]
    },
    "properties": {
    "name":"Strozzi",
    "image":"https://b.zmtcdn.com/data/pictures/6/16572406/5eb4136705e9224561a03031c1bf22f7_featured_v2.jpg",
    "rating":"3.2",
    "url":"https://www.zomato.com/melbourne/strozzi-1-cbd/info"
    }
  },
  {
    "type": "Feature",
    "geometry": {
       "type": "Point",
       "coordinates":  [ 144.9713275954,-37.8152666044 ]
    },
    "properties": {
    "name":"Swiss Club Restaurant",
    "image":"https://b.zmtcdn.com/data/pictures/3/16572433/fd4f87fa521ab2ff698e5f7082c38970_featured_v2.jpg",
    "rating":"4.1",
    "url":"https://www.zomato.com/melbourne/swiss-club-restaurant-1-cbd/info"
    }
  },
  {
    "type": "Feature",
    "geometry": {
       "type": "Point",
       "coordinates":  [ 144.9654535577,-37.8165427147 ]
    },
    "properties": {
    "name":"Vicolino",
    "image":"https://b.zmtcdn.com/data/pictures/3/16572583/a5c316ba2ac689d4e635191e7839495f_featured_v2.jpg",
    "rating":"3.1",
    "url":"https://www.zomato.com/melbourne/vicolino-1-cbd/info"
    }
  },
  {
    "type": "Feature",
    "geometry": {
       "type": "Point",
       "coordinates":  [ 144.9688951671,-37.8087784426 ]
    },
    "properties": {
    "name":"Decoy Cafe / On Site Coffee Roasters",
    "image":"https://b.zmtcdn.com/data/pictures/6/16572686/7c7d4282a5eccbd7d07579534e52c520_featured_v2.jpg",
    "rating":"3.9",
    "url":"https://www.zomato.com/melbourne/decoy-cafe-on-site-coffee-roasters-1-cbd/info"
    }
  },
  {
    "type": "Feature",
    "geometry": {
       "type": "Point",
       "coordinates":  [ 144.9555330724,-37.8163287068 ]
    },
    "properties": {
    "name":"Hudsons Coffee",
    "image":"https://b.zmtcdn.com/data/pictures/chains/2/16575192/f04c40957f48dad39a074b2767a992b7_featured_v2.jpg",
    "rating":"2.6",
    "url":"https://www.zomato.com/melbourne/hudsons-coffee-2-cbd/info"
    }
  },
  {
    "type": "Feature",
    "geometry": {
       "type": "Point",
       "coordinates":  [ 144.9657955393,-37.817252803 ]
    },
    "properties": {
    "name":"The Organic Food & Wine Deli",
    "image":"https://b.zmtcdn.com/data/pictures/5/16575365/e806f257dd560963aa5197c6af9f9288_featured_v2.jpg",
    "rating":"4.1",
    "url":"https://www.zomato.com/melbourne/the-organic-food-wine-deli-1-cbd/info"
    }
  },
  {
    "type": "Feature",
    "geometry": {
       "type": "Point",
       "coordinates":  [ 144.9620947614,-37.8145334535 ]
    },
    "properties": {
    "name":"Little Curry",
    "image":"https://b.zmtcdn.com/data/pictures/6/16575316/e433318f64b43bf37571766cb4447fb7_featured_v2.jpg",
    "rating":"3.4",
    "url":"https://www.zomato.com/melbourne/little-curry-cbd/info"
    }
  },
  {
    "type": "Feature",
    "geometry": {
       "type": "Point",
       "coordinates":  [ 144.969425574,-37.8102880275 ]
    },
    "properties": {
    "name":"Curry Bowl",
    "image":"https://b.zmtcdn.com/data/pictures/5/16575315/e4862e582c2a370aac086367e5d26a11_featured_v2.jpg",
    "rating":"4.0",
    "url":"https://www.zomato.com/melbourne/curry-bowl-cbd/info"
    }
  },
  {
    "type": "Feature",
    "geometry": {
       "type": "Point",
       "coordinates":  [ 144.9699754268,-37.8125177807 ]
    },
    "properties": {
    "name":"Urban Deli",
    "image":"https://b.zmtcdn.com/data/pictures/3/16575503/af9a23bdef581135efaf15b609616218_featured_v2.jpg",
    "rating":"3.4",
    "url":"https://www.zomato.com/melbourne/urban-deli-2-cbd/info"
    }
  },
  {
    "type": "Feature",
    "geometry": {
       "type": "Point",
       "coordinates":  [ 144.9665924907,-37.8268426962 ]
    },
    "properties": {
    "name":"ACCA Café",
    "image":"https://b.zmtcdn.com/images/res_avatar_476_320_1x_new.png",
    "rating":"3.8",
    "url":"https://www.zomato.com/melbourne/acca-café-southbank/info"
    }
  },
  {
    "type": "Feature",
    "geometry": {
       "type": "Point",
       "coordinates":  [ 144.9715810642,-37.8129630346 ]
    },
    "properties": {
    "name":"N.Lee Bakery",
    "image":"https://b.zmtcdn.com/data/pictures/chains/0/17849510/af00c1601d584df4353d1baa166292f1_featured_v2.jpg",
    "rating":"4.3",
    "url":"https://www.zomato.com/melbourne/nlee-bakery-1-cbd/info"
    }
  },
  {
    "type": "Feature",
    "geometry": {
       "type": "Point",
       "coordinates":  [ 144.9587349594,-37.8149495599 ]
    },
    "properties": {
    "name":"EARL Canteen",
    "image":"https://b.zmtcdn.com/data/pictures/chains/2/16529682/2cf366fbdd00dffa7f91b06eac0d5e82_featured_v2.jpg",
    "rating":"4.4",
    "url":"https://www.zomato.com/melbourne/earl-canteen-6-cbd/info"
    }
  },
  {
    "type": "Feature",
    "geometry": {
       "type": "Point",
       "coordinates":  [ 144.9433182925,-37.8192879455 ]
    },
    "properties": {
    "name":"Vintam's Bakery Cafe",
    "image":"https://b.zmtcdn.com/data/pictures/3/16575733/9b72f78d44fdf14004667dca7807ea5d_featured_v2.jpg",
    "rating":"4.1",
    "url":"https://www.zomato.com/melbourne/vintams-bakery-cafe-docklands/info"
    }
  },
  {
    "type": "Feature",
    "geometry": {
       "type": "Point",
       "coordinates":  [ 144.9602966756,-37.8162545456 ]
    },
    "properties": {
    "name":"Dikstein's Corner Bar",
    "image":"https://b.zmtcdn.com/data/pictures/2/16575772/25c0973a07061364fefd0b836083577e_featured_v2.jpg",
    "rating":"4.1",
    "url":"https://www.zomato.com/melbourne/diksteins-corner-bar-1-cbd/info"
    }
  },
  {
    "type": "Feature",
    "geometry": {
       "type": "Point",
       "coordinates":  [ 144.9437682331,-37.8205512736 ]
    },
    "properties": {
    "name":"Shinsei Fish & Sushi",
    "image":"https://b.zmtcdn.com/data/pictures/9/16575769/9dae51313e24bff79b5feac1012e5715_featured_v2.jpg",
    "rating":"3.4",
    "url":"https://www.zomato.com/melbourne/shinsei-fish-sushi-docklands/info"
    }
  },
  {
    "type": "Feature",
    "geometry": {
       "type": "Point",
       "coordinates":  { }
    },
    "properties": {
    "name":"name",
    "image":"image",
    "rating":"rating",
    "url":"url"
    }
  },
  {
    "type": "Feature",
    "geometry": {
       "type": "Point",
       "coordinates":  [ 144.9732306227,-37.7929480615 ]
    },
    "properties": {
    "name":"Dan O'Connell Hotel",
    "image":"https://b.zmtcdn.com/data/pictures/6/16574196/250394c61c47ec0e03eb6c3e90bcf096_featured_v2.jpg",
    "rating":"3.9",
    "url":"https://www.zomato.com/melbourne/dan-oconnell-hotel-carlton/info"
    }
  },
  {
    "type": "Feature",
    "geometry": {
       "type": "Point",
       "coordinates":  [ 144.971103631,-37.7976745363 ]
    },
    "properties": {
    "name":"Abla's",
    "image":"https://b.zmtcdn.com/data/pictures/9/16570689/451e99626105c78c6529b59620b8bce8_featured_v2.jpg",
    "rating":"4.3",
    "url":"https://www.zomato.com/melbourne/ablas-carlton/info"
    }
  },
  {
    "type": "Feature",
    "geometry": {
       "type": "Point",
       "coordinates":  [ 144.9666585401,-37.801481725 ]
    },
    "properties": {
    "name":"Café Notturno",
    "image":"https://b.zmtcdn.com/data/pictures/3/16571003/afb616ba798710b5adc69d1e082080c2_featured_v2.jpg",
    "rating":"2.7",
    "url":"https://www.zomato.com/melbourne/café-notturno-carlton/info"
    }
  },
  {
    "type": "Feature",
    "geometry": {
       "type": "Point",
       "coordinates":  [ 144.9677200243,-37.7982610856 ]
    },
    "properties": {
    "name":"Brunetti Classico",
    "image":"https://b.zmtcdn.com/data/pictures/5/16570935/7ce4b7b4265adef5353ab4d84d9334e4_featured_v2.jpg",
    "rating":"4.4",
    "url":"https://www.zomato.com/melbourne/brunetti-classico-carlton/info"
    }
  },
  {
    "type": "Feature",
    "geometry": {
       "type": "Point",
       "coordinates":  [ 144.9673012644,-37.7995833212 ]
    },
    "properties": {
    "name":"Copperwood",
    "image":"https://b.zmtcdn.com/data/pictures/chains/9/16571169/b53929de4fd5da68c4d903b1106d6b9b_featured_v2.jpg",
    "rating":"3.3",
    "url":"https://www.zomato.com/melbourne/copperwood-carlton/info"
    }
  },
  {
    "type": "Feature",
    "geometry": {
       "type": "Point",
       "coordinates":  [ 144.9700401351,-37.7991043413 ]
    },
    "properties": {
    "name":"East Imperial Chinese",
    "image":"https://b.zmtcdn.com/data/pictures/1/16571271/92cc2d63129f0034198d293a2ab48ce0_featured_v2.jpg",
    "rating":"3.6",
    "url":"https://www.zomato.com/melbourne/east-imperial-chinese-carlton/info"
    }
  },
  {
    "type": "Feature",
    "geometry": {
       "type": "Point",
       "coordinates":  [ 144.9673247337,-37.7975253815 ]
    },
    "properties": {
    "name":"Jimmy Watson's Wine Bar",
    "image":"https://b.zmtcdn.com/data/pictures/8/16571598/dd0eeff8962f2b7a4b73e9cfbd50d3ad_featured_v2.jpg",
    "rating":"3.8",
    "url":"https://www.zomato.com/melbourne/jimmy-watsons-wine-bar-carlton/info"
    }
  },
  {
    "type": "Feature",
    "geometry": {
       "type": "Point",
       "coordinates":  [ 144.9665686861,-37.8018284977 ]
    },
    "properties": {
    "name":"Koko Black",
    "image":"https://b.zmtcdn.com/data/pictures/chains/2/16579132/796fb9bbb918bfd96f01aaf2ee6b862f_featured_v2.jpg",
    "rating":"4.4",
    "url":"https://www.zomato.com/melbourne/koko-black-carlton/info"
    }
  },
  {
    "type": "Feature",
    "geometry": {
       "type": "Point",
       "coordinates":  [ 144.9669995159,-37.8016006716 ]
    },
    "properties": {
    "name":"La Spaghettata",
    "image":"https://b.zmtcdn.com/data/pictures/3/16571703/9fdfd8aedf68495e3ade3f9ffcb2d4c3_featured_v2.jpg",
    "rating":"4.3",
    "url":"https://www.zomato.com/melbourne/la-spaghettata-carlton/info"
    }
  },
  {
    "type": "Feature",
    "geometry": {
       "type": "Point",
       "coordinates":  [ 144.9664761499,-37.8042259264 ]
    },
    "properties": {
    "name":"Lygon Charcoal Grill & Steakhouse",
    "image":"https://b.zmtcdn.com/data/pictures/chains/9/16571799/7b0cb4739b17f54a49af33bbdefbde7b_featured_v2.jpg",
    "rating":"4.0",
    "url":"https://www.zomato.com/melbourne/lygon-charcoal-grill-steakhouse-carlton/info"
    }
  },
  {
    "type": "Feature",
    "geometry": {
       "type": "Point",
       "coordinates":  [ 144.9687087536,-37.7984380562 ]
    },
    "properties": {
    "name":"Masani Italian Dining & Terrace",
    "image":"https://b.zmtcdn.com/data/pictures/0/16571850/33634a75d4d458ccdf9b88510d9ad207_featured_v2.jpg",
    "rating":"3.6",
    "url":"https://www.zomato.com/melbourne/masani-italian-dining-terrace-carlton/info"
    }
  },
  {
    "type": "Feature",
    "geometry": {
       "type": "Point",
       "coordinates":  [ 144.9707599729,-37.7969496885 ]
    },
    "properties": {
    "name":"Paris Go",
    "image":"https://b.zmtcdn.com/data/pictures/chains/1/16572071/74e5f4a640b2433e7d970f3d2c9a14c4_featured_v2.jpeg",
    "rating":"4.2",
    "url":"https://www.zomato.com/melbourne/paris-go-carlton/info"
    }
  },
  {
    "type": "Feature",
    "geometry": {
       "type": "Point",
       "coordinates":  [ 144.9670078978,-37.8015545765 ]
    },
    "properties": {
    "name":"Piccolo Mondo",
    "image":"https://b.zmtcdn.com/data/pictures/4/16572104/55f4a2168b1826d809fb9bd9eef28d92_featured_v2.jpg",
    "rating":"3.7",
    "url":"https://www.zomato.com/melbourne/piccolo-mondo-carlton/info"
    }
  },
  {
    "type": "Feature",
    "geometry": {
       "type": "Point",
       "coordinates":  [ 144.9669985101,-37.7994900687 ]
    },
    "properties": {
    "name":"University Cafe",
    "image":"https://b.zmtcdn.com/data/pictures/8/16572558/c7b5b12c764451bb0696b4281f7ddf45_featured_v2.jpg",
    "rating":"3.7",
    "url":"https://www.zomato.com/melbourne/university-cafe-carlton/info"
    }
  },
  {
    "type": "Feature",
    "geometry": {
       "type": "Point",
       "coordinates":  [ 144.9665049836,-37.8041663228 ]
    },
    "properties": {
    "name":"Thai City",
    "image":"https://b.zmtcdn.com/data/pictures/chains/5/16572485/1eb7f9463581a64736f635a5719ec833_featured_v2.jpg",
    "rating":"3.9",
    "url":"https://www.zomato.com/melbourne/thai-city-carlton/info"
    }
  },
  {
    "type": "Feature",
    "geometry": {
       "type": "Point",
       "coordinates":  [ 144.9661395326,-37.8047385157 ]
    },
    "properties": {
    "name":"IloveIstanbul",
    "image":"https://b.zmtcdn.com/data/pictures/8/16575908/92db3f2cf356f56de3b5f3f9253f7516_featured_v2.jpg",
    "rating":"3.9",
    "url":"https://www.zomato.com/melbourne/iloveistanbul-carlton/info"
    }
  },
  {
    "type": "Feature",
    "geometry": {
       "type": "Point",
       "coordinates":  [ 144.9636078626,-37.8016046454 ]
    },
    "properties": {
    "name":"Blues Bar & Grill",
    "image":"https://b.zmtcdn.com/data/pictures/6/16575976/2d152d3b165d66cdef34c75639ee2e0c_featured_v2.jpg",
    "rating":"3.1",
    "url":"https://www.zomato.com/melbourne/blues-bar-grill-carlton/info"
    }
  },
  {
    "type": "Feature",
    "geometry": {
       "type": "Point",
       "coordinates":  [ 144.967026338,-37.8011958814 ]
    },
    "properties": {
    "name":"Il Gusto",
    "image":"https://b.zmtcdn.com/data/pictures/8/16576558/0128af6b5263c82d374c3edf6de470ed_featured_v2.jpg",
    "rating":"2.4",
    "url":"https://www.zomato.com/melbourne/il-gusto-carlton/info"
    }
  },
  {
    "type": "Feature",
    "geometry": {
       "type": "Point",
       "coordinates":  [ 144.9663946778,-37.8047369263 ]
    },
    "properties": {
    "name":"Lambs Restaurant",
    "image":"https://b.zmtcdn.com/data/pictures/1/16576951/44768026c7b245b5b402aef86440e82a_featured_v2.jpg",
    "rating":"2.5",
    "url":"https://www.zomato.com/melbourne/lambs-restaurant-carlton/info"
    }
  },
  {
    "type": "Feature",
    "geometry": {
       "type": "Point",
       "coordinates":  [ 144.9705256149,-37.7964736059 ]
    },
    "properties": {
    "name":"Capitano",
    "image":"https://b.zmtcdn.com/data/pictures/7/18762147/14ad29fee16525eff2446e1509c99636_featured_v2.jpg",
    "rating":"3.9",
    "url":"https://www.zomato.com/melbourne/capitano-carlton/info"
    }
  },
  {
    "type": "Feature",
    "geometry": {
       "type": "Point",
       "coordinates":  [ 144.968915619,-37.8060709664 ]
    },
    "properties": {
    "name":"Epocha",
    "image":"https://b.zmtcdn.com/data/pictures/chains/6/16580286/bfdea907045ae512406a4329f54706de_featured_v2.jpg",
    "rating":"4.4",
    "url":"https://www.zomato.com/melbourne/epocha-carlton/info"
    }
  },
  {
    "type": "Feature",
    "geometry": {
       "type": "Point",
       "coordinates":  [ 144.9665452167,-37.803980624 ]
    },
    "properties": {
    "name":"La Spaghetteria Ristorante",
    "image":"https://b.zmtcdn.com/data/pictures/4/16571704/dae702b8ce7b95131bab91265041e08d_featured_v2.jpg",
    "rating":"2.3",
    "url":"https://www.zomato.com/melbourne/la-spaghetteria-ristorante-carlton/info"
    }
  },
  {
    "type": "Feature",
    "geometry": {
       "type": "Point",
       "coordinates":  [ 144.9709634855,-37.7958427983 ]
    },
    "properties": {
    "name":"Ziyka Restaurant",
    "image":"https://b.zmtcdn.com/data/pictures/4/16583274/e869878a3f65a71650766d1c67ccb803_featured_v2.jpg",
    "rating":"4.1",
    "url":"https://www.zomato.com/melbourne/ziyka-restaurant-carlton/info"
    }
  },
  {
    "type": "Feature",
    "geometry": {
       "type": "Point",
       "coordinates":  [ 144.9687821791,-37.7974368951 ]
    },
    "properties": {
    "name":"The Shaw Davey Slum",
    "image":"https://b.zmtcdn.com/data/pictures/chains/8/16584908/e8fcf30c309aa89ad4f8a85a924e1204_featured_v2.jpg",
    "rating":"3.7",
    "url":"https://www.zomato.com/melbourne/the-shaw-davey-slum-carlton/info"
    }
  },
  {
    "type": "Feature",
    "geometry": {
       "type": "Point",
       "coordinates":  [ 144.9710861966,-37.7951139585 ]
    },
    "properties": {
    "name":"Oscar on Rathdowne",
    "image":"https://b.zmtcdn.com/data/pictures/chains/8/16579818/b7341bc796ed372edb896ebad05a0ad8_featured_v2.jpg",
    "rating":"3.5",
    "url":"https://www.zomato.com/melbourne/oscar-on-rathdowne-carlton/info"
    }
  },
  {
    "type": "Feature",
    "geometry": {
       "type": "Point",
       "coordinates":  [ 144.9678782746,-37.7986290674 ]
    },
    "properties": {
    "name":"Criniti's",
    "image":"https://b.zmtcdn.com/data/pictures/chains/8/16584268/473f2db532cbf4452a534d05619d682a_featured_v2.jpg",
    "rating":"2.4",
    "url":"https://www.zomato.com/melbourne/crinitis-carlton/info"
    }
  },
  {
    "type": "Feature",
    "geometry": {
       "type": "Point",
       "coordinates":  [ 144.9710419402,-37.7953619397 ]
    },
    "properties": {
    "name":"The Olive Jar",
    "image":"https://b.zmtcdn.com/data/pictures/6/16585436/9afc8e7448c3a7e0d360a103145f4207_featured_v2.jpg",
    "rating":"4.1",
    "url":"https://www.zomato.com/melbourne/the-olive-jar-carlton/info"
    }
  },
  {
    "type": "Feature",
    "geometry": {
       "type": "Point",
       "coordinates":  [ 144.967309311,-37.7976491032 ]
    },
    "properties": {
    "name":"Heartattack and Vine",
    "image":"https://b.zmtcdn.com/data/pictures/8/16585838/3b57af2e06f09e4577c874f08bac6931_featured_v2.jpg",
    "rating":"4.3",
    "url":"https://www.zomato.com/melbourne/heartattack-and-vine-carlton/info"
    }
  },
  {
    "type": "Feature",
    "geometry": {
       "type": "Point",
       "coordinates":  [ 144.97101143,-37.7955322938 ]
    },
    "properties": {
    "name":"Carlton Pizzeria Bar and Restaurant",
    "image":"https://b.zmtcdn.com/data/pictures/chains/6/17849456/f35d02e1fb67114be9531b79e3981d55_featured_v2.jpg",
    "rating":"3.7",
    "url":"https://www.zomato.com/melbourne/carlton-pizzeria-bar-and-restaurant-carlton/info"
    }
  },
  {
    "type": "Feature",
    "geometry": {
       "type": "Point",
       "coordinates":  [ 144.9685994536,-37.7986788733 ]
    },
    "properties": {
    "name":"The Carlton Wine Room",
    "image":"https://b.zmtcdn.com/data/pictures/0/16577700/3b2ff7a6d93a547228c569880911e0cb_featured_v2.jpg",
    "rating":"4.4",
    "url":"https://www.zomato.com/melbourne/the-carlton-wine-room-carlton/info"
    }
  },
  {
    "type": "Feature",
    "geometry": {
       "type": "Point",
       "coordinates":  [ 144.9665204063,-37.8005987587 ]
    },
    "properties": {
    "name":"Dumpling 88",
    "image":"https://b.zmtcdn.com/data/pictures/7/16577887/78383e223799e4b895b11a098dbc13f4_featured_v2.jpg",
    "rating":"3.5",
    "url":"https://www.zomato.com/melbourne/dumpling-88-carlton/info"
    }
  },
  {
    "type": "Feature",
    "geometry": {
       "type": "Point",
       "coordinates":  [ 144.9650877714,-37.8006734655 ]
    },
    "properties": {
    "name":"Domino's",
    "image":"https://b.zmtcdn.com/data/pictures/chains/8/16578158/3681d0963bb1b82a44bf467d423fdd91_featured_v2.jpg",
    "rating":"3.5",
    "url":"https://www.zomato.com/melbourne/dominos-carlton/info"
    }
  },
  {
    "type": "Feature",
    "geometry": {
       "type": "Point",
       "coordinates":  [ 144.9666424468,-37.8008199649 ]
    },
    "properties": {
    "name":"Tutto",
    "image":"https://b.zmtcdn.com/data/pictures/3/16578933/1c51bdc4b41ed7abc34f28148a2223e7_featured_v2.jpg",
    "rating":"4.1",
    "url":"https://www.zomato.com/melbourne/tutto-carlton/info"
    }
  },
  {
    "type": "Feature",
    "geometry": {
       "type": "Point",
       "coordinates":  [ 144.9637828767,-37.8005682931 ]
    },
    "properties": {
    "name":"KFC",
    "image":"https://b.zmtcdn.com/data/pictures/chains/4/16583734/f567a11d187eb2f31a5f99363c044104_featured_v2.jpg",
    "rating":"3.1",
    "url":"https://www.zomato.com/melbourne/kfc-carlton/info"
    }
  },
  {
    "type": "Feature",
    "geometry": {
       "type": "Point",
       "coordinates":  [ 144.9640735611,-37.8008093682 ]
    },
    "properties": {
    "name":"Subway",
    "image":"https://b.zmtcdn.com/data/pictures/chains/9/16583719/6e20a9be99fac9e1c0b214aa2319a25a_featured_v2.jpg",
    "rating":"3.1",
    "url":"https://www.zomato.com/melbourne/subway-carlton/info"
    }
  },
  {
    "type": "Feature",
    "geometry": {
       "type": "Point",
       "coordinates":  [ 144.9666635692,-37.8011365402 ]
    },
    "properties": {
    "name":"Leyalina",
    "image":"https://b.zmtcdn.com/data/pictures/3/16711173/6f4a2c4190e5736f3e21597f91f1d957_featured_v2.jpg",
    "rating":"3.9",
    "url":"https://www.zomato.com/leyalina/info"
    }
  },
  {
    "type": "Feature",
    "geometry": {
       "type": "Point",
       "coordinates":  [ 144.9666186422,-37.8016687546 ]
    },
    "properties": {
    "name":"Hwatu 花鬪 화투",
    "image":"https://b.zmtcdn.com/data/pictures/1/18299221/79adf77ac9e9e5fe9e6a014ae10369f3_featured_v2.jpg",
    "rating":"3.8",
    "url":"https://www.zomato.com/melbourne/hwatu-carlton/info"
    }
  },
  {
    "type": "Feature",
    "geometry": {
       "type": "Point",
       "coordinates":  [ 144.9666833505,-37.8012295257 ]
    },
    "properties": {
    "name":"Tabouli",
    "image":"https://b.zmtcdn.com/data/pictures/4/18314584/fa1cc03b577405253101b6b0d206a272_featured_v2.jpeg",
    "rating":"3.5",
    "url":"https://www.zomato.com/melbourne/tabouli-carlton/info"
    }
  },
  {
    "type": "Feature",
    "geometry": {
       "type": "Point",
       "coordinates":  [ 144.9659504369,-37.8047451383 ]
    },
    "properties": {
    "name":"Blackcat on Lygon",
    "image":"https://b.zmtcdn.com/data/pictures/chains/1/18338071/e58763433057ea51cc241aa793c04802_featured_v2.jpg",
    "rating":"3.4",
    "url":"https://www.zomato.com/melbourne/blackcat-on-lygon-carlton/info"
    }
  },
  {
    "type": "Feature",
    "geometry": {
       "type": "Point",
       "coordinates":  [ 144.9665743858,-37.8016523299 ]
    },
    "properties": {
    "name":"MIXITY Restaurant And Cafe",
    "image":"https://b.zmtcdn.com/data/pictures/chains/0/18339990/fbc5a116e0036f0c6d004647a90234f3_featured_v2.jpg",
    "rating":"3.7",
    "url":"https://www.zomato.com/melbourne/mixity-restaurant-and-cafe-carlton/info"
    }
  },
  {
    "type": "Feature",
    "geometry": {
       "type": "Point",
       "coordinates":  [ 144.9643903971,-37.7989800922 ]
    },
    "properties": {
    "name":"E Dumpling",
    "image":"https://b.zmtcdn.com/data/pictures/2/18167972/921b45c8f3cab6bfa5158cb1673a78fd_featured_v2.jpg",
    "rating":"3.2",
    "url":"https://www.zomato.com/melbourne/e-dumpling-carlton/info"
    }
  },
  {
    "type": "Feature",
    "geometry": {
       "type": "Point",
       "coordinates":  [ 144.9667906389,-37.8009071226 ]
    },
    "properties": {
    "name":"Tono On Borsari",
    "image":"https://b.zmtcdn.com/data/pictures/5/18170365/e0bce60372c40660866f63827260dca1_featured_v2.jpg",
    "rating":"2.6",
    "url":"https://www.zomato.com/melbourne/tono-on-borsari-carlton/info"
    }
  },
  {
    "type": "Feature",
    "geometry": {
       "type": "Point",
       "coordinates":  [ 144.9665401876,-37.8040442014 ]
    },
    "properties": {
    "name":"Da Guido La Pasta",
    "image":"https://b.zmtcdn.com/data/pictures/9/18204159/ba333f39928810001e381a9e5200877b_featured_v2.jpg",
    "rating":"4.1",
    "url":"https://www.zomato.com/melbourne/da-guido-la-pasta-carlton/info"
    }
  },
  {
    "type": "Feature",
    "geometry": {
       "type": "Point",
       "coordinates":  [ 144.9635696411,-37.8047183831 ]
    },
    "properties": {
    "name":"Yoghurt Cup",
    "image":"https://b.zmtcdn.com/data/pictures/8/19227078/1a3c65cd7530f0757fa463c886e1eb68_featured_v2.jpg",
    "rating":"3.6",
    "url":"https://www.zomato.com/melbourne/yoghurt-cup-carlton/info"
    }
  },
  {
    "type": "Feature",
    "geometry": {
       "type": "Point",
       "coordinates":  [ 144.9644031376,-37.7988767719 ]
    },
    "properties": {
    "name":"Qiao Xiangyuan",
    "image":"https://b.zmtcdn.com/images/res_avatar_476_320_1x_new.png",
    "rating":"3.1",
    "url":"https://www.zomato.com/melbourne/qiao-xiangyuan-carlton/info"
    }
  },
  {
    "type": "Feature",
    "geometry": {
       "type": "Point",
       "coordinates":  [ 144.9658465013,-37.8061880513 ]
    },
    "properties": {
    "name":"Sonny's Fried Chicken & Burgers",
    "image":"https://b.zmtcdn.com/data/pictures/4/18465624/881ff9c907d2f89b8bb12d1e212f6704_featured_v2.jpg",
    "rating":"4.1",
    "url":"https://www.zomato.com/melbourne/sonnys-fried-chicken-burgers-carlton/info"
    }
  },
  {
    "type": "Feature",
    "geometry": {
       "type": "Point",
       "coordinates":  [ 144.9662518501,-37.8037567782 ]
    },
    "properties": {
    "name":"143 Italy",
    "image":"https://b.zmtcdn.com/data/pictures/0/18523620/33211a65a260cccdd4dffc80ab0ba84a_featured_v2.jpg",
    "rating":"2.6",
    "url":"https://www.zomato.com/melbourne/143-italy-carlton/info"
    }
  },
  {
    "type": "Feature",
    "geometry": {
       "type": "Point",
       "coordinates":  [ 144.9678655341,-37.8007126733 ]
    },
    "properties": {
    "name":"Mr Pietro",
    "image":"https://b.zmtcdn.com/data/pictures/8/18555368/f15e99226dab0e569832b2ff7ea47277_featured_v2.jpg",
    "rating":"3.6",
    "url":"https://www.zomato.com/melbourne/mr-pietro-carlton/info"
    }
  },
  {
    "type": "Feature",
    "geometry": {
       "type": "Point",
       "coordinates":  [ 144.9636222795,-37.8015731205 ]
    },
    "properties": {
    "name":"Dans le Noir ? Melbourne - Dining in the dark",
    "image":"https://b.zmtcdn.com/data/pictures/6/18589446/20be20220e1bcd4b84513d5eabbe3d42_featured_v2.jpg",
    "rating":"3.7",
    "url":"https://www.zomato.com/melbourne/dans-le-noir-melbourne-dining-in-the-dark-carlton/info"
    }
  },
  {
    "type": "Feature",
    "geometry": {
       "type": "Point",
       "coordinates":  [ 144.9677455053,-37.7970352612 ]
    },
    "properties": {
    "name":"Green Man's Arms",
    "image":"https://b.zmtcdn.com/data/pictures/2/18594952/734a1a7fa6d9a50a237285e388deef03_featured_v2.jpg",
    "rating":"4.0",
    "url":"https://www.zomato.com/melbourne/green-mans-arms-carlton/info"
    }
  },
  {
    "type": "Feature",
    "geometry": {
       "type": "Point",
       "coordinates":  [ 144.9664577097,-37.8042895036 ]
    },
    "properties": {
    "name":"Confucius Says...",
    "image":"https://b.zmtcdn.com/data/pictures/2/18629702/5d9c46420977de068f15784e74137752_featured_v2.jpg",
    "rating":"3.7",
    "url":"https://www.zomato.com/melbourne/confucius-says-carlton/info"
    }
  },
  {
    "type": "Feature",
    "geometry": {
       "type": "Point",
       "coordinates":  [ 144.9637664482,-37.8047700392 ]
    },
    "properties": {
    "name":"TuanTuan Chinese Brasserie",
    "image":"https://b.zmtcdn.com/data/pictures/9/18631179/dbf7d5369608c7c5aa88fe19c0e63a41_featured_v2.jpg",
    "rating":"4.1",
    "url":"https://www.zomato.com/melbourne/tuantuan-chinese-brasserie-carlton/info"
    }
  },
  {
    "type": "Feature",
    "geometry": {
       "type": "Point",
       "coordinates":  [ 144.9623187259,-37.800386824 ]
    },
    "properties": {
    "name":"Prince Alfred Hotel",
    "image":"https://b.zmtcdn.com/data/pictures/7/18637827/cc24c99d5fa1f068dd3f0d9e09df06f2_featured_v2.jpg",
    "rating":"2.7",
    "url":"https://www.zomato.com/melbourne/prince-alfred-hotel-carlton/info"
    }
  },
  {
    "type": "Feature",
    "geometry": {
       "type": "Point",
       "coordinates":  [ 144.967373684,-37.7991427552 ]
    },
    "properties": {
    "name":"Lavezzi Gelateria",
    "image":"https://b.zmtcdn.com/data/pictures/6/18650646/31e603aba92162ace6f0daca2b153568_featured_v2.jpg",
    "rating":"4.3",
    "url":"https://www.zomato.com/melbourne/lavezzi-gelateria-carlton/info"
    }
  },
  {
    "type": "Feature",
    "geometry": {
       "type": "Point",
       "coordinates":  [ 144.9664345756,-37.8045959977 ]
    },
    "properties": {
    "name":"Flavours of Indus",
    "image":"https://b.zmtcdn.com/data/pictures/5/18706425/6c830123a57db0fd1465ce4be1030266_featured_v2.jpg",
    "rating":"3.5",
    "url":"https://www.zomato.com/melbourne/flavours-of-indus-1-carlton/info"
    }
  },
  {
    "type": "Feature",
    "geometry": {
       "type": "Point",
       "coordinates":  [ 144.9677418172,-37.7993880737 ]
    },
    "properties": {
    "name":"Mint & Cö.",
    "image":"https://b.zmtcdn.com/data/pictures/5/18739495/ef7dea3d764c153f3a1fc091334d4ff5_featured_v2.jpg",
    "rating":"3.9",
    "url":"https://www.zomato.com/melbourne/mint-cö-carlton/info"
    }
  },
  {
    "type": "Feature",
    "geometry": {
       "type": "Point",
       "coordinates":  [ 144.9682152271,-37.7971099716 ]
    },
    "properties": {
    "name":"Curry in Carlton",
    "image":"https://b.zmtcdn.com/images/res_avatar_476_320_1x_new.png",
    "rating":"3.1",
    "url":"https://www.zomato.com/melbourne/curry-in-carlton-carlton/info"
    }
  },
  {
    "type": "Feature",
    "geometry": {
       "type": "Point",
       "coordinates":  [ 144.966475144,-37.8041909589 ]
    },
    "properties": {
    "name":"Đông Phûông",
    "image":"https://b.zmtcdn.com/data/pictures/0/18853390/ba2d1a8c07fe13baa09b52c8fb3e75e6_featured_v2.jpg",
    "rating":"4.1",
    "url":"https://www.zomato.com/melbourne/ông-phûông-carlton/info"
    }
  },
  {
    "type": "Feature",
    "geometry": {
       "type": "Point",
       "coordinates":  [ 144.9661938474,-37.8041840714 ]
    },
    "properties": {
    "name":"Kazuki's",
    "image":"https://b.zmtcdn.com/data/pictures/9/18865309/c1a83ed26b0bdd6a2b637775bea92746_featured_v2.jpg",
    "rating":"3.8",
    "url":"https://www.zomato.com/melbourne/kazukis-carlton/info"
    }
  },
  {
    "type": "Feature",
    "geometry": {
       "type": "Point",
       "coordinates":  [ 144.962939322,-37.8056566642 ]
    },
    "properties": {
    "name":"No. 1 Delicious Hot Pot & BBQ",
    "image":"https://b.zmtcdn.com/data/pictures/0/18869210/bec092a04ea1b856688e4c52bcd207fb_featured_v2.jpg",
    "rating":"3.7",
    "url":"https://www.zomato.com/melbourne/no-1-delicious-hot-pot-bbq-carlton/info"
    }
  },
  {
    "type": "Feature",
    "geometry": {
       "type": "Point",
       "coordinates":  { }
    },
    "properties": {
    "name":"name",
    "image":"image",
    "rating":"rating",
    "url":"url"
    }
  },
  {
    "type": "Feature",
    "geometry": {
       "type": "Point",
       "coordinates":  [ 144.9482445046,-37.8187095088 ]
    },
    "properties": {
    "name":"The Nixon Hotel",
    "image":"https://b.zmtcdn.com/data/pictures/5/16572715/be9a8e6dc72b2f0f4cb8079e051a87cf_featured_v2.jpg",
    "rating":"3.2",
    "url":"https://www.zomato.com/melbourne/the-nixon-hotel-docklands/info"
    }
  },
  {
    "type": "Feature",
    "geometry": {
       "type": "Point",
       "coordinates":  [ 144.9443948641,-37.8188173039 ]
    },
    "properties": {
    "name":"Watermark Docklands",
    "image":"https://b.zmtcdn.com/data/pictures/6/16572626/faefb6c1631471e81dd0f97895325a2a_featured_v2.jpg",
    "rating":"3.3",
    "url":"https://www.zomato.com/melbourne/watermark-docklands-docklands/info"
    }
  },
  {
    "type": "Feature",
    "geometry": {
       "type": "Point",
       "coordinates":  [ 144.9492050707,-37.818470611 ]
    },
    "properties": {
    "name":"Platform 28",
    "image":"https://b.zmtcdn.com/data/pictures/3/16576053/f54fcbc2d84d4e7f34a95e6ee606aa9c_featured_v2.jpg",
    "rating":"3.4",
    "url":"https://www.zomato.com/melbourne/platform-28-docklands/info"
    }
  },
  {
    "type": "Feature",
    "geometry": {
       "type": "Point",
       "coordinates":  [ 144.9531019852,-37.817429728 ]
    },
    "properties": {
    "name":"Red Rooster",
    "image":"https://b.zmtcdn.com/data/pictures/chains/7/16583167/69e2309257671748b813a79d4034bd16_featured_v2.jpg",
    "rating":"2.4",
    "url":"https://www.zomato.com/melbourne/red-rooster-1-docklands/info"
    }
  },
  {
    "type": "Feature",
    "geometry": {
       "type": "Point",
       "coordinates":  [ 144.9414038658,-37.815298918 ]
    },
    "properties": {
    "name":"Cargo",
    "image":"https://b.zmtcdn.com/data/pictures/0/16583180/3e51f1fc26d33cc258fc780bde87e23c_featured_v2.jpg",
    "rating":"4.3",
    "url":"https://www.zomato.com/melbourne/cargo-docklands/info"
    }
  },
  {
    "type": "Feature",
    "geometry": {
       "type": "Point",
       "coordinates":  [ 144.9530322477,-37.8170099276 ]
    },
    "properties": {
    "name":"Hungry Jack's",
    "image":"https://b.zmtcdn.com/data/pictures/chains/2/16582962/1fabde4e3756ead46586bd3d5f6a2bd3_featured_v2.png",
    "rating":"2.7",
    "url":"https://www.zomato.com/melbourne/hungry-jacks-2-docklands/info"
    }
  },
  {
    "type": "Feature",
    "geometry": {
       "type": "Point",
       "coordinates":  [ 144.9375398085,-37.8124253392 ]
    },
    "properties": {
    "name":"KFC",
    "image":"https://b.zmtcdn.com/data/pictures/chains/4/16583734/f567a11d187eb2f31a5f99363c044104_featured_v2.jpg",
    "rating":"3.0",
    "url":"https://www.zomato.com/melbourne/kfc-docklands/info"
    }
  },
  {
    "type": "Feature",
    "geometry": {
       "type": "Point",
       "coordinates":  [ 144.9536441267,-37.8189174181 ]
    },
    "properties": {
    "name":"Pie Face",
    "image":"https://b.zmtcdn.com/data/pictures/chains/0/16579220/29d91132539e4e1633e444250224349f_featured_v2.jpg",
    "rating":"2.9",
    "url":"https://www.zomato.com/melbourne/pie-face-docklands/info"
    }
  },
  {
    "type": "Feature",
    "geometry": {
       "type": "Point",
       "coordinates":  [ 144.9389888719,-37.8157528956 ]
    },
    "properties": {
    "name":"Almina",
    "image":"https://b.zmtcdn.com/data/pictures/6/16579536/319e33e0bb95440763b12c83d0ab4ffb_featured_v2.jpg",
    "rating":"3.6",
    "url":"https://www.zomato.com/melbourne/almina-docklands/info"
    }
  },
  {
    "type": "Feature",
    "geometry": {
       "type": "Point",
       "coordinates":  [ 144.9408714473,-37.8152070097 ]
    },
    "properties": {
    "name":"Steakhouse 66",
    "image":"https://b.zmtcdn.com/data/pictures/0/16580720/6b48622b0240a5810ceadaee1907071d_featured_v2.jpg",
    "rating":"3.7",
    "url":"https://www.zomato.com/melbourne/steakhouse-66-docklands/info"
    }
  },
  {
    "type": "Feature",
    "geometry": {
       "type": "Point",
       "coordinates":  [ 144.9538741261,-37.8232145208 ]
    },
    "properties": {
    "name":"Man Mo",
    "image":"https://b.zmtcdn.com/data/pictures/3/16584203/c44ed07da0a5af72bee3557054b7f628_featured_v2.jpg",
    "rating":"4.2",
    "url":"https://www.zomato.com/melbourne/man-mo-1-docklands/info"
    }
  },
  {
    "type": "Feature",
    "geometry": {
       "type": "Point",
       "coordinates":  [ 144.9434745312,-37.8142791798 ]
    },
    "properties": {
    "name":"Docklands Lotus",
    "image":"https://b.zmtcdn.com/data/pictures/chains/6/16585796/a4b77d2cbf91333452708a14c288bcbc_featured_v2.jpg",
    "rating":"3.5",
    "url":"https://www.zomato.com/melbourne/docklands-lotus-docklands/info"
    }
  },
  {
    "type": "Feature",
    "geometry": {
       "type": "Point",
       "coordinates":  [ 144.9401153997,-37.8146264221 ]
    },
    "properties": {
    "name":"Docklands Pizzeria",
    "image":"https://b.zmtcdn.com/data/pictures/9/16586359/4d039625f57b1b15914032cd142e4d20_featured_v2.jpg",
    "rating":"3.1",
    "url":"https://www.zomato.com/melbourne/docklands-pizzeria-docklands/info"
    }
  },
  {
    "type": "Feature",
    "geometry": {
       "type": "Point",
       "coordinates":  [ 144.9490045756,-37.8187759869 ]
    },
    "properties": {
    "name":"The HOF Downtown",
    "image":"https://b.zmtcdn.com/data/pictures/8/16586358/d9f63c5be616935d05f67cd1ce2db594_featured_v2.jpg",
    "rating":"4.0",
    "url":"https://www.zomato.com/melbourne/the-hof-downtown-docklands/info"
    }
  },
  {
    "type": "Feature",
    "geometry": {
       "type": "Point",
       "coordinates":  [ 144.9520421773,-37.8229237294 ]
    },
    "properties": {
    "name":"Bababoi Kitchen & Bar",
    "image":"https://b.zmtcdn.com/data/pictures/4/17849604/47419c499b458984144481ddcaf99996_featured_v2.jpg",
    "rating":"3.5",
    "url":"https://www.zomato.com/melbourne/bababoi-kitchen-bar-docklands/info"
    }
  },
  {
    "type": "Feature",
    "geometry": {
       "type": "Point",
       "coordinates":  [ 144.9545782059,-37.8230423766 ]
    },
    "properties": {
    "name":"The Wharf Hotel",
    "image":"https://b.zmtcdn.com/data/pictures/0/16576140/25332f185c0a786e4ad923942aec3582_featured_v2.jpg",
    "rating":"3.8",
    "url":"https://www.zomato.com/melbourne/the-wharf-hotel-docklands/info"
    }
  },
  {
    "type": "Feature",
    "geometry": {
       "type": "Point",
       "coordinates":  [ 144.9476054683,-37.8189868094 ]
    },
    "properties": {
    "name":"Ginger Leaf",
    "image":"https://b.zmtcdn.com/data/pictures/9/16577159/0dc58bddcf0c1920557e2308b7303be9_featured_v2.jpg",
    "rating":"3.7",
    "url":"https://www.zomato.com/melbourne/ginger-leaf-docklands/info"
    }
  },
  {
    "type": "Feature",
    "geometry": {
       "type": "Point",
       "coordinates":  [ 144.954171516,-37.823132951 ]
    },
    "properties": {
    "name":"Riverside Teppanyaki",
    "image":"https://b.zmtcdn.com/data/pictures/1/16578681/846126b0a7afcc84ba3647a9c8b13f4a_featured_v2.jpg",
    "rating":"3.9",
    "url":"https://www.zomato.com/melbourne/riverside-teppanyaki-docklands/info"
    }
  },
  {
    "type": "Feature",
    "geometry": {
       "type": "Point",
       "coordinates":  [ 144.9433146045,-37.8142113733 ]
    },
    "properties": {
    "name":"Aussie Steak 'N' Burger",
    "image":"https://b.zmtcdn.com/data/pictures/8/16580868/1995d0f3b1812e41bcbbd2e90575034d_featured_v2.jpg",
    "rating":"2.6",
    "url":"https://www.zomato.com/melbourne/aussie-steak-n-burger-docklands/info"
    }
  },
  {
    "type": "Feature",
    "geometry": {
       "type": "Point",
       "coordinates":  [ 144.9535183981,-37.8189306607 ]
    },
    "properties": {
    "name":"Grill'd - Southern Cross",
    "image":"https://b.zmtcdn.com/data/pictures/chains/3/16573083/b48f568191325438c30a0b4076e4ea7b_featured_v2.jpg",
    "rating":"3.6",
    "url":"https://www.zomato.com/melbourne/grilld-southern-cross-docklands/info"
    }
  },
  {
    "type": "Feature",
    "geometry": {
       "type": "Point",
       "coordinates":  [ 144.9527707323,-37.8190885125 ]
    },
    "properties": {
    "name":"Spanish Doughnuts",
    "image":"https://b.zmtcdn.com/data/pictures/chains/1/16575311/685ed2baa19061d17ee7b1af4c43b21d_featured_v2.png",
    "rating":"3.1",
    "url":"https://www.zomato.com/melbourne/spanish-doughnuts-docklands/info"
    }
  },
  {
    "type": "Feature",
    "geometry": {
       "type": "Point",
       "coordinates":  [ 144.9532531947,-37.8179258046 ]
    },
    "properties": {
    "name":"Network Public Bar & Pizzeria",
    "image":"https://b.zmtcdn.com/data/pictures/6/16582216/680e779ef88e8e749a718b21d7f2e2e3_featured_v2.jpg",
    "rating":"3.6",
    "url":"https://www.zomato.com/melbourne/network-public-bar-pizzeria-docklands/info"
    }
  },
  {
    "type": "Feature",
    "geometry": {
       "type": "Point",
       "coordinates":  [ 144.9483863264,-37.819788512 ]
    },
    "properties": {
    "name":"Pizza Hut",
    "image":"https://b.zmtcdn.com/data/pictures/chains/4/16582324/25ee1b5e76e03668512dcc4f64fcb23a_featured_v2.jpg",
    "rating":"3.3",
    "url":"https://www.zomato.com/melbourne/pizza-hut-docklands/info"
    }
  },
  {
    "type": "Feature",
    "geometry": {
       "type": "Point",
       "coordinates":  [ 144.9433414266,-37.8198626697 ]
    },
    "properties": {
    "name":"Subway",
    "image":"https://b.zmtcdn.com/data/pictures/chains/9/16583719/6e20a9be99fac9e1c0b214aa2319a25a_featured_v2.jpg",
    "rating":"3.1",
    "url":"https://www.zomato.com/melbourne/subway-2-docklands/info"
    }
  },
  {
    "type": "Feature",
    "geometry": {
       "type": "Point",
       "coordinates":  [ 144.9376678839,-37.8125482413 ]
    },
    "properties": {
    "name":"Gelateria On The Docks",
    "image":"https://b.zmtcdn.com/data/pictures/4/16712564/034bc6946d2d0bd70b0772ee050c86c4_featured_v2.jpg",
    "rating":"3.6",
    "url":"https://www.zomato.com/melbourne/gelateria-on-the-docks-docklands/info"
    }
  },
  {
    "type": "Feature",
    "geometry": {
       "type": "Point",
       "coordinates":  [ 144.9437018484,-37.8200422371 ]
    },
    "properties": {
    "name":"TAP831",
    "image":"https://b.zmtcdn.com/data/pictures/chains/0/18170400/0ad8e4bd917fd231d7deaeb09f70ddeb_featured_v2.jpg",
    "rating":"3.2",
    "url":"https://www.zomato.com/melbourne/tap831-docklands/info"
    }
  },
  {
    "type": "Feature",
    "geometry": {
       "type": "Point",
       "coordinates":  [ 144.9471464753,-37.8147228339 ]
    },
    "properties": {
    "name":"Momami at Peppers Hotel",
    "image":"https://b.zmtcdn.com/data/pictures/0/18239690/9a06d6adb1faa1fd6e6c290df032f30b_featured_v2.jpg",
    "rating":"3.1",
    "url":"https://www.zomato.com/melbourne/momami-at-peppers-hotel-docklands/info"
    }
  },
  {
    "type": "Feature",
    "geometry": {
       "type": "Point",
       "coordinates":  [ 144.9366603792,-37.8118532058 ]
    },
    "properties": {
    "name":"Ben & Jerry's",
    "image":"https://b.zmtcdn.com/data/pictures/chains/1/16580651/5ed7c52fef3ad22ffe89ed1cc67a0405_featured_v2.jpg",
    "rating":"0",
    "url":"https://www.zomato.com/melbourne/ben-jerrys-docklands/info"
    }
  },
  {
    "type": "Feature",
    "geometry": {
       "type": "Point",
       "coordinates":  [ 144.9424874783,-37.8146582062 ]
    },
    "properties": {
    "name":"Solidaire",
    "image":"https://b.zmtcdn.com/data/pictures/5/18418615/f6f29fb401e096ab7abaa83630732e10_featured_v2.jpg",
    "rating":"3.3",
    "url":"https://www.zomato.com/melbourne/solidaire-docklands/info"
    }
  },
  {
    "type": "Feature",
    "geometry": {
       "type": "Point",
       "coordinates":  [ 144.9520632997,-37.8229197568 ]
    },
    "properties": {
    "name":"Perso",
    "image":"https://b.zmtcdn.com/data/pictures/8/18473278/7e8be75a506657fd0298867848a31bdc_featured_v2.jpg",
    "rating":"3.2",
    "url":"https://www.zomato.com/melbourne/perso-docklands/info"
    }
  },
  {
    "type": "Feature",
    "geometry": {
       "type": "Point",
       "coordinates":  [ 144.9444210157,-37.8210399135 ]
    },
    "properties": {
    "name":"Honey Tang's",
    "image":"https://b.zmtcdn.com/data/pictures/3/18596043/575eabda357f87e90fc2c19dfda8d44b_featured_v2.jpg",
    "rating":"3.2",
    "url":"https://www.zomato.com/melbourne/honey-tangs-docklands/info"
    }
  },
  {
    "type": "Feature",
    "geometry": {
       "type": "Point",
       "coordinates":  [ 144.9379833788,-37.8150027981 ]
    },
    "properties": {
    "name":"Dock 18 Restaurant",
    "image":"https://b.zmtcdn.com/data/pictures/5/18598485/090f2a3e9ef66c7ab11b57ff47155d3c_featured_v2.jpg",
    "rating":"3.8",
    "url":"https://www.zomato.com/melbourne/dock-18-restaurant-docklands/info"
    }
  },
  {
    "type": "Feature",
    "geometry": {
       "type": "Point",
       "coordinates":  [ 144.9442061037,-37.8159751158 ]
    },
    "properties": {
    "name":"Lady Cutler",
    "image":"https://b.zmtcdn.com/images/res_avatar_476_320_1x_new.png",
    "rating":"0",
    "url":"https://www.zomato.com/melbourne/lady-cutler-docklands/info"
    }
  },
  {
    "type": "Feature",
    "geometry": {
       "type": "Point",
       "coordinates":  [ 144.9403071776,-37.8154443289 ]
    },
    "properties": {
    "name":"Water Front Fish Market Restaurant",
    "image":"https://b.zmtcdn.com/data/pictures/1/18710981/74d9e9ee341f2eef48857afacd7a9df8_featured_v2.jpg",
    "rating":"3.6",
    "url":"https://www.zomato.com/melbourne/water-front-fish-market-restaurant-docklands/info"
    }
  },
  {
    "type": "Feature",
    "geometry": {
       "type": "Point",
       "coordinates":  [ 144.9369336292,-37.8120651075 ]
    },
    "properties": {
    "name":"Urban Alley",
    "image":"https://b.zmtcdn.com/data/pictures/4/18792894/d1b22548773c3f5b8b7554c9b03fbb05_featured_v2.jpg",
    "rating":"3.0",
    "url":"https://www.zomato.com/melbourne/urban-alley-docklands/info"
    }
  },
  {
    "type": "Feature",
    "geometry": {
       "type": "Point",
       "coordinates":  [ 144.9367696792,-37.8117191776 ]
    },
    "properties": {
    "name":"Archie Brothers Cirque Electriq",
    "image":"https://b.zmtcdn.com/data/pictures/1/18814291/2ac266ef42bf4c7ffc89b51a6030d1d3_featured_v2.jpg",
    "rating":"3.3",
    "url":"https://www.zomato.com/melbourne/archie-brothers-cirque-electriq-docklands/info"
    }
  },
  {
    "type": "Feature",
    "geometry": {
       "type": "Point",
       "coordinates":  [ 144.9368602037,-37.8117954624 ]
    },
    "properties": {
    "name":"Carl's Junior",
    "image":"https://b.zmtcdn.com/data/pictures/chains/9/18819289/fbb60d2f01346482ea6ec1ed0224c3e2_featured_v2.jpg",
    "rating":"2.8",
    "url":"https://www.zomato.com/melbourne/carls-junior-docklands/info"
    }
  },
  {
    "type": "Feature",
    "geometry": {
       "type": "Point",
       "coordinates":  [ 144.9370694161,-37.8117949327 ]
    },
    "properties": {
    "name":"Fukutontei Ramen",
    "image":"https://b.zmtcdn.com/data/pictures/chains/3/18424993/030efecce924189a9e5881ee1de835de_featured_v2.jpg",
    "rating":"3.2",
    "url":"https://www.zomato.com/melbourne/fukutontei-ramen-docklands/info"
    }
  },
  {
    "type": "Feature",
    "geometry": {
       "type": "Point",
       "coordinates":  [ 144.9410960823,-37.8149858466 ]
    },
    "properties": {
    "name":"Wok on the Dock",
    "image":"https://b.zmtcdn.com/data/pictures/9/18819309/ee4acc9dca91b4a9fbc3e6e3de02a09e_featured_v2.jpg",
    "rating":"3.6",
    "url":"https://www.zomato.com/melbourne/wok-on-the-dock-docklands/info"
    }
  },
  {
    "type": "Feature",
    "geometry": {
       "type": "Point",
       "coordinates":  [ 144.9373057857,-37.8117446059 ]
    },
    "properties": {
    "name":"North East China Family - Docklands",
    "image":"https://b.zmtcdn.com/data/pictures/8/19002258/5a523da156e65e9bea917c446c33a0e1_featured_v2.jpg",
    "rating":"3.6",
    "url":"https://www.zomato.com/melbourne/north-east-china-family-docklands-docklands/info"
    }
  },
  {
    "type": "Feature",
    "geometry": {
       "type": "Point",
       "coordinates":  [ 144.9372139201,-37.8115909765 ]
    },
    "properties": {
    "name":"Pok Pok Junior - Docklands",
    "image":"https://b.zmtcdn.com/data/pictures/6/19002296/95b11ede1409f673634994d9d16ad05b_featured_v2.jpg",
    "rating":"3.6",
    "url":"https://www.zomato.com/melbourne/pok-pok-junior-docklands-docklands/info"
    }
  },
  {
    "type": "Feature",
    "geometry": {
       "type": "Point",
       "coordinates":  [ 144.937219955,-37.8116338868 ]
    },
    "properties": {
    "name":"Non La - Docklands",
    "image":"https://b.zmtcdn.com/data/pictures/8/19006058/22aa01d41a09bd7c83d38db4dbddcd2c_featured_v2.jpg",
    "rating":"3.4",
    "url":"https://www.zomato.com/melbourne/non-la-docklands-docklands/info"
    }
  },
  {
    "type": "Feature",
    "geometry": {
       "type": "Point",
       "coordinates":  [ 144.9372189492,-37.8115827653 ]
    },
    "properties": {
    "name":"Bing Bing 8 - Docklands",
    "image":"https://b.zmtcdn.com/data/pictures/4/19002324/50e370f9daa74db4a028f11aca8fca83_featured_v2.jpg",
    "rating":"2.8",
    "url":"https://www.zomato.com/melbourne/bing-bing-8-docklands-docklands/info"
    }
  },
  {
    "type": "Feature",
    "geometry": {
       "type": "Point",
       "coordinates":  [ 144.9371508881,-37.8117157342 ]
    },
    "properties": {
    "name":"GJ's Grill - Docklands",
    "image":"https://b.zmtcdn.com/data/pictures/2/19002242/a50e8940bfd86e63c27634740e64979a_featured_v2.jpg",
    "rating":"2.9",
    "url":"https://www.zomato.com/melbourne/gjs-grill-docklands-docklands/info"
    }
  },
  {
    "type": "Feature",
    "geometry": {
       "type": "Point",
       "coordinates":  [ 144.9371733517,-37.811620378 ]
    },
    "properties": {
    "name":"Yummy - Docklands",
    "image":"https://b.zmtcdn.com/data/pictures/8/19002318/be3bc703226da2fb846fb21de2865a5f_featured_v2.jpg",
    "rating":"0",
    "url":"https://www.zomato.com/melbourne/yummy-docklands-docklands/info"
    }
  },
  {
    "type": "Feature",
    "geometry": {
       "type": "Point",
       "coordinates":  [ 144.9372937158,-37.8116267351 ]
    },
    "properties": {
    "name":"Shonan Kamakura - Docklands",
    "image":"https://b.zmtcdn.com/data/pictures/2/19031092/b5237cd30fe2cb5e524ed7a42b980d60_featured_v2.jpg",
    "rating":"0",
    "url":"https://www.zomato.com/melbourne/shonan-kamakura-docklands-docklands/info"
    }
  },
  {
    "type": "Feature",
    "geometry": {
       "type": "Point",
       "coordinates":  [ 144.9373383075,-37.8116484551 ]
    },
    "properties": {
    "name":"The Pancake Parlour",
    "image":"https://b.zmtcdn.com/data/pictures/chains/7/16572827/29f467df2264c892b076be6e41b8536b_featured_v2.jpg",
    "rating":"3.8",
    "url":"https://www.zomato.com/melbourne/the-pancake-parlour-docklands/info"
    }
  },
  {
    "type": "Feature",
    "geometry": {
       "type": "Point",
       "coordinates":  [ 144.937175028,-37.8116370653 ]
    },
    "properties": {
    "name":"No.1 Malatang 壹號麻辣燙",
    "image":"https://b.zmtcdn.com/images/res_avatar_476_320_1x_new.png",
    "rating":"2.3",
    "url":"https://www.zomato.com/melbourne/no-1-malatang-docklands/info"
    }
  },
  {
    "type": "Feature",
    "geometry": {
       "type": "Point",
       "coordinates":  [ 144.9370633811,-37.8118831369 ]
    },
    "properties": {
    "name":"Yassas - The Greek Way",
    "image":"https://b.zmtcdn.com/data/pictures/1/19130261/fe41ad4b737dce88ec905c11a0fb7877_featured_v2.jpg",
    "rating":"3.2",
    "url":"https://www.zomato.com/melbourne/yassas-the-greek-way-docklands/info"
    }
  },
  {
    "type": "Feature",
    "geometry": {
       "type": "Point",
       "coordinates":  [ 144.9440679699,-37.8213765303 ]
    },
    "properties": {
    "name":"Pony Boy",
    "image":"https://b.zmtcdn.com/data/pictures/chains/6/19199666/6abcf7e544685cf21da64d64f1e9e51e_featured_v2.jpg",
    "rating":"3.3",
    "url":"https://www.zomato.com/melbourne/pony-boy-docklands/info"
    }
  },
  {
    "type": "Feature",
    "geometry": {
       "type": "Point",
       "coordinates":  [ 144.9470536038,-37.8187426154 ]
    },
    "properties": {
    "name":"Noulboo Chicken N Jokbal",
    "image":"https://b.zmtcdn.com/data/pictures/1/19199521/75a5b038d7e5cb994bd1debf7f815c9d_featured_v2.jpg",
    "rating":"3.7",
    "url":"https://www.zomato.com/melbourne/noulboo-chicken-n-jokbal-docklands/info"
    }
  },
  {
    "type": "Feature",
    "geometry": {
       "type": "Point",
       "coordinates":  [ 144.9473556876,-37.818694677 ]
    },
    "properties": {
    "name":"Simply Indian by Aravind",
    "image":"https://b.zmtcdn.com/data/pictures/1/19306421/2d60cf12d771b516549f108c59b6a73f_featured_v2.jpg",
    "rating":"0",
    "url":"https://www.zomato.com/melbourne/simply-indian-by-aravind-docklands/info"
    }
  },
  {
    "type": "Feature",
    "geometry": {
       "type": "Point",
       "coordinates":  [ 144.9365504086,-37.811731362 ]
    },
    "properties": {
    "name":"Artie's Bar & Cafe",
    "image":"https://b.zmtcdn.com/data/pictures/9/19308339/505b000af1f910086cea7b85117fc4db_featured_v2.jpg",
    "rating":"0",
    "url":"https://www.zomato.com/melbourne/arties-bar-cafe-docklands/info"
    }
  },
  {
    "type": "Feature",
    "geometry": {
       "type": "Point",
       "coordinates":  [ 144.9475166202,-37.8145212696 ]
    },
    "properties": {
    "name":"Oriental Dumpling - 中华食府",
    "image":"https://b.zmtcdn.com/data/pictures/2/19307402/d1d1f5cc0c7d75b960787768a5f6e67c_featured_v2.jpg",
    "rating":"0",
    "url":"https://www.zomato.com/melbourne/oriental-dumpling-docklands/info"
    }
  },
  {
    "type": "Feature",
    "geometry": {
       "type": "Point",
       "coordinates":  [ 144.945785,-37.821081 ]
    },
    "properties": {
    "name":"Spicy Kitchen Docklands 辣府川菜馆",
    "image":"https://b.zmtcdn.com/data/pictures/1/19354461/a16427167b75d0b677ef2a2aced34440_featured_v2.jpg",
    "rating":"0",
    "url":"https://www.zomato.com/melbourne/spicy-kitchen-docklands-docklands/info"
    }
  },
  {
    "type": "Feature",
    "geometry": {
       "type": "Point",
       "coordinates":  [ 144.947498,-37.819174 ]
    },
    "properties": {
    "name":"Chefs Palace Australia",
    "image":"https://b.zmtcdn.com/data/pictures/3/19505883/2e548ea8e4676824c559b9281328bade_featured_v2.jpg",
    "rating":"0",
    "url":"https://www.zomato.com/melbourne/chefs-palace-australia-docklands/info"
    }
  },
  {
    "type": "Feature",
    "geometry": {
       "type": "Point",
       "coordinates":  [ 144.937368,-37.812896 ]
    },
    "properties": {
    "name":"Miss Ping's - The District Docklands",
    "image":"https://b.zmtcdn.com/images/res_avatar_476_320_1x_new.png",
    "rating":"0",
    "url":"https://www.zomato.com/melbourne/miss-pings-the-district-docklands-docklands/info"
    }
  },
  {
    "type": "Feature",
    "geometry": {
       "type": "Point",
       "coordinates":  [ 144.9471246824,-37.8187810191 ]
    },
    "properties": {
    "name":"De Gusto Café",
    "image":"https://b.zmtcdn.com/data/pictures/9/16573399/5e289bd845d70415115135281bdead7c_featured_v2.jpg",
    "rating":"3.7",
    "url":"https://www.zomato.com/melbourne/de-gusto-café-docklands/info"
    }
  },
  {
    "type": "Feature",
    "geometry": {
       "type": "Point",
       "coordinates":  [ 144.9379320815,-37.8122722409 ]
    },
    "properties": {
    "name":"The Coffee Club",
    "image":"https://b.zmtcdn.com/data/pictures/chains/6/16584646/7623c4bb688b90a1efd28f3c7f5c752e_featured_v2.jpg",
    "rating":"2.2",
    "url":"https://www.zomato.com/melbourne/the-coffee-club-docklands/info"
    }
  },
  {
    "type": "Feature",
    "geometry": {
       "type": "Point",
       "coordinates":  [ 144.9546660483,-37.8207549402 ]
    },
    "properties": {
    "name":"Gaylord Restaurant",
    "image":"https://b.zmtcdn.com/data/pictures/5/16571395/d1261d528e9c51194479d5db93e88c75_featured_v2.jpg",
    "rating":"3.6",
    "url":"https://www.zomato.com/melbourne/gaylord-restaurant-docklands/info"
    }
  },
  {
    "type": "Feature",
    "geometry": {
       "type": "Point",
       "coordinates":  [ 144.9669143558,-37.8201963786 ]
    },
    "properties": {
    "name":"The Deck Southbank",
    "image":"https://b.zmtcdn.com/data/pictures/9/16571219/1695961a9da30193842788656280f08b_featured_v2.jpg",
    "rating":"4.2",
    "url":"https://www.zomato.com/melbourne/the-deck-southbank-southbank/info"
    }
  },
  {
    "type": "Feature",
    "geometry": {
       "type": "Point",
       "coordinates":  [ 144.9670290202,-37.8204795002 ]
    },
    "properties": {
    "name":"Jarrah Restaurant",
    "image":"https://b.zmtcdn.com/data/pictures/3/16571593/375a1a9fb935deaae1d5749e17c0d438_featured_v2.jpg",
    "rating":"3.3",
    "url":"https://www.zomato.com/melbourne/jarrah-restaurant-southbank/info"
    }
  },
  {
    "type": "Feature",
    "geometry": {
       "type": "Point",
       "coordinates":  [ 144.958553575,-37.8234086459 ]
    },
    "properties": {
    "name":"Margo's",
    "image":"https://b.zmtcdn.com/data/pictures/6/16571836/9bae6524b9043b73a318fd7140407cbc_featured_v2.jpg",
    "rating":"2.4",
    "url":"https://www.zomato.com/melbourne/margos-southbank/info"
    }
  },
  {
    "type": "Feature",
    "geometry": {
       "type": "Point",
       "coordinates":  [ 144.9658562243,-37.8209220576 ]
    },
    "properties": {
    "name":"Melba",
    "image":"https://b.zmtcdn.com/data/pictures/7/16571867/4597069fdc98af47a9d35a0af8bfeba2_featured_v2.jpg",
    "rating":"4.4",
    "url":"https://www.zomato.com/melbourne/melba-southbank/info"
    }
  },
  {
    "type": "Feature",
    "geometry": {
       "type": "Point",
       "coordinates":  [ 144.9620166421,-37.821508687 ]
    },
    "properties": {
    "name":"The Meat & Wine Co",
    "image":"https://b.zmtcdn.com/data/pictures/chains/1/16571861/37e4d59a0b8a632c213a95a2076431c9_featured_v2.jpg",
    "rating":"4.4",
    "url":"https://www.zomato.com/melbourne/the-meat-wine-co-southbank/info"
    }
  },
  {
    "type": "Feature",
    "geometry": {
       "type": "Point",
       "coordinates":  [ 144.9654713273,-37.8203245647 ]
    },
    "properties": {
    "name":"Pure South Dining",
    "image":"https://b.zmtcdn.com/data/pictures/6/16572156/3974eb627a15b27cb523cbcf25b04dad_featured_v2.jpg",
    "rating":"4.0",
    "url":"https://www.zomato.com/melbourne/pure-south-dining-southbank/info"
    }
  },
  {
    "type": "Feature",
    "geometry": {
       "type": "Point",
       "coordinates":  [ 144.9664570391,-37.820183401 ]
    },
    "properties": {
    "name":"Red Emperor",
    "image":"https://b.zmtcdn.com/data/pictures/chains/0/16572190/03853de001dd94b4e483da051163a91d_featured_v2.jpg",
    "rating":"4.2",
    "url":"https://www.zomato.com/melbourne/red-emperor-southbank/info"
    }
  },
  {
    "type": "Feature",
    "geometry": {
       "type": "Point",
       "coordinates":  [ 144.9601374194,-37.8221654946 ]
    },
    "properties": {
    "name":"Silks",
    "image":"https://b.zmtcdn.com/data/pictures/1/16572331/e0745eeb75d0b8bdb0aee51d5c600c7e_featured_v2.jpg",
    "rating":"4.2",
    "url":"https://www.zomato.com/melbourne/silks-southbank/info"
    }
  },
  {
    "type": "Feature",
    "geometry": {
       "type": "Point",
       "coordinates":  [ 144.9587956443,-37.8228842685 ]
    },
    "properties": {
    "name":"Baci",
    "image":"https://b.zmtcdn.com/data/pictures/8/16575928/efee40ea696a44bc689f599374c569a7_featured_v2.jpg",
    "rating":"2.3",
    "url":"https://www.zomato.com/melbourne/baci-southbank/info"
    }
  },
  {
    "type": "Feature",
    "geometry": {
       "type": "Point",
       "coordinates":  [ 144.9573871493,-37.8233766007 ]
    },
    "properties": {
    "name":"Calatrava",
    "image":"https://b.zmtcdn.com/data/pictures/3/16576023/82df5420e45e95797d656ab5e7ddeeeb_featured_v2.jpg",
    "rating":"2.7",
    "url":"https://www.zomato.com/melbourne/calatrava-southbank/info"
    }
  },
  {
    "type": "Feature",
    "geometry": {
       "type": "Point",
       "coordinates":  [ 144.9600586295,-37.8220050011 ]
    },
    "properties": {
    "name":"Spice Temple",
    "image":"https://b.zmtcdn.com/data/pictures/8/16576508/3cdc552c5e27b0c9d792cbd5e16dd689_featured_v2.png",
    "rating":"4.4",
    "url":"https://www.zomato.com/melbourne/spice-temple-southbank/info"
    }
  },
  {
    "type": "Feature",
    "geometry": {
       "type": "Point",
       "coordinates":  [ 144.9639656022,-37.8206304626 ]
    },
    "properties": {
    "name":"Ludlow Bar & Dining Room",
    "image":"https://b.zmtcdn.com/data/pictures/6/16576766/c186fe2760bfdba664563fa32b57aa48_featured_v2.jpg",
    "rating":"3.7",
    "url":"https://www.zomato.com/melbourne/ludlow-bar-dining-room-southbank/info"
    }
  },
  {
    "type": "Feature",
    "geometry": {
       "type": "Point",
       "coordinates":  [ 144.9593247101,-37.8223432025 ]
    },
    "properties": {
    "name":"Ging Thai",
    "image":"https://b.zmtcdn.com/data/pictures/2/19148762/dc12a489f222aa8bc689c32fa8614a4a_featured_v2.jpg",
    "rating":"3.7",
    "url":"https://www.zomato.com/melbourne/ging-thai-southbank/info"
    }
  },
  {
    "type": "Feature",
    "geometry": {
       "type": "Point",
       "coordinates":  [ 144.9622727931,-37.8213164108 ]
    },
    "properties": {
    "name":"McDonald's",
    "image":"https://b.zmtcdn.com/data/pictures/chains/4/16582984/2f64069e9bf988a3f8a06956776e57fb_featured_v2.jpg",
    "rating":"2.6",
    "url":"https://www.zomato.com/melbourne/mcdonalds-southbank/info"
    }
  },
  {
    "type": "Feature",
    "geometry": {
       "type": "Point",
       "coordinates":  [ 144.9574092776,-37.8235400045 ]
    },
    "properties": {
    "name":"Moorish Table",
    "image":"https://b.zmtcdn.com/data/pictures/3/16583593/d394fcad8faf7c0093618e6f2b90c05c_featured_v2.jpg",
    "rating":"2.8",
    "url":"https://www.zomato.com/melbourne/moorish-table-southbank/info"
    }
  },
  {
    "type": "Feature",
    "geometry": {
       "type": "Point",
       "coordinates":  [ 144.9588667229,-37.8252397002 ]
    },
    "properties": {
    "name":"KFC",
    "image":"https://b.zmtcdn.com/data/pictures/chains/4/16583734/f567a11d187eb2f31a5f99363c044104_featured_v2.jpg",
    "rating":"3.4",
    "url":"https://www.zomato.com/melbourne/kfc-southbank/info"
    }
  },
  {
    "type": "Feature",
    "geometry": {
       "type": "Point",
       "coordinates":  [ 144.9587597698,-37.8253231215 ]
    },
    "properties": {
    "name":"Schnitz",
    "image":"https://b.zmtcdn.com/data/pictures/chains/1/16583731/a47e447fc4e0b586527ced6cfd8254f8_featured_v2.jpg",
    "rating":"3.3",
    "url":"https://www.zomato.com/melbourne/schnitz-southbank/info"
    }
  },
  {
    "type": "Feature",
    "geometry": {
       "type": "Point",
       "coordinates":  [ 144.9701856449,-37.8301433863 ]
    },
    "properties": {
    "name":"Story So Far",
    "image":"https://b.zmtcdn.com/data/pictures/4/16584074/01b53bd8bddbe4f99029b715eae9e138_featured_v2.jpg",
    "rating":"3.8",
    "url":"https://www.zomato.com/melbourne/story-so-far-southbank/info"
    }
  },
  {
    "type": "Feature",
    "geometry": {
       "type": "Point",
       "coordinates":  [ 144.9576131254,-37.8257545271 ]
    },
    "properties": {
    "name":"28 Skybar & Lounge",
    "image":"https://b.zmtcdn.com/data/pictures/9/16584119/30f4fce73e7f39655ae1dafdda101307_featured_v2.jpg",
    "rating":"3.3",
    "url":"https://www.zomato.com/melbourne/28-skybar-lounge-southbank/info"
    }
  },
  {
    "type": "Feature",
    "geometry": {
       "type": "Point",
       "coordinates":  [ 144.9591074511,-37.8225452751 ]
    },
    "properties": {
    "name":"The Den",
    "image":"https://b.zmtcdn.com/data/pictures/chains/2/16584122/0133665c52083ecc838bba7708d6c28b_featured_v2.jpg",
    "rating":"3.1",
    "url":"https://www.zomato.com/melbourne/the-den-southbank/info"
    }
  },
  {
    "type": "Feature",
    "geometry": {
       "type": "Point",
       "coordinates":  [ 144.9658052623,-37.8203719723 ]
    },
    "properties": {
    "name":"Hophaus",
    "image":"https://b.zmtcdn.com/data/pictures/5/16584825/a628eae88d95bc152c68d62d0c698ebb_featured_v2.jpg",
    "rating":"4.0",
    "url":"https://www.zomato.com/melbourne/hophaus-southbank/info"
    }
  },
  {
    "type": "Feature",
    "geometry": {
       "type": "Point",
       "coordinates":  [ 144.9679587409,-37.8298007189 ]
    },
    "properties": {
    "name":"Ayam Chef",
    "image":"https://b.zmtcdn.com/data/pictures/2/16585052/a2df806b83c014c62453b2885248edde_featured_v2.jpg",
    "rating":"4.4",
    "url":"https://www.zomato.com/melbourne/ayam-chef-southbank/info"
    }
  },
  {
    "type": "Feature",
    "geometry": {
       "type": "Point",
       "coordinates":  [ 144.9679205194,-37.8198160563 ]
    },
    "properties": {
    "name":"Saké Restaurant & Bar",
    "image":"https://b.zmtcdn.com/data/pictures/chains/9/16580109/b3cd4db9b601ae9c6d801c339df820ee_featured_v2.jpg",
    "rating":"4.2",
    "url":"https://www.zomato.com/melbourne/saké-restaurant-bar-southbank/info"
    }
  },
  {
    "type": "Feature",
    "geometry": {
       "type": "Point",
       "coordinates":  [ 144.9579594657,-37.823677719 ]
    },
    "properties": {
    "name":"Cotta",
    "image":"https://b.zmtcdn.com/data/pictures/0/16580060/97f532960e4dae8fa1f0dfa5b6ef2a4c_featured_v2.jpg",
    "rating":"3.7",
    "url":"https://www.zomato.com/melbourne/cotta-southbank/info"
    }
  },
  {
    "type": "Feature",
    "geometry": {
       "type": "Point",
       "coordinates":  [ 144.9631186947,-37.8209649625 ]
    },
    "properties": {
    "name":"Breslin Bar & Grill",
    "image":"https://b.zmtcdn.com/data/pictures/5/16580315/7704f299e8a3f22bfc3fd426c5cd5ba9_featured_v2.jpg",
    "rating":"4.1",
    "url":"https://www.zomato.com/melbourne/breslin-bar-grill-southbank/info"
    }
  },
  {
    "type": "Feature",
    "geometry": {
       "type": "Point",
       "coordinates":  [ 144.957492426,-37.8240050545 ]
    },
    "properties": {
    "name":"Man Tong Kitchen",
    "image":"https://b.zmtcdn.com/data/pictures/chains/8/16580768/f20f453f2789f9810f0ef2cac4d5cf73_featured_v2.png",
    "rating":"3.6",
    "url":"https://www.zomato.com/melbourne/man-tong-kitchen-southbank/info"
    }
  },
  {
    "type": "Feature",
    "geometry": {
       "type": "Point",
       "coordinates":  [ 144.9571638554,-37.8239441426 ]
    },
    "properties": {
    "name":"Las Vegas Bar",
    "image":"https://b.zmtcdn.com/images/res_avatar_476_320_1x_new.png",
    "rating":"0",
    "url":"https://www.zomato.com/melbourne/las-vegas-bar-southbank/info"
    }
  },
  {
    "type": "Feature",
    "geometry": {
       "type": "Point",
       "coordinates":  [ 144.9598769099,-37.8225556038 ]
    },
    "properties": {
    "name":"Atrium Bar",
    "image":"https://b.zmtcdn.com/data/pictures/8/16584118/12ad07febca1d8f48bcdca58d69e0794_featured_v2.jpg",
    "rating":"3.7",
    "url":"https://www.zomato.com/melbourne/atrium-bar-southbank/info"
    }
  },
  {
    "type": "Feature",
    "geometry": {
       "type": "Point",
       "coordinates":  [ 144.9577847868,-37.8243125261 ]
    },
    "properties": {
    "name":"Degani",
    "image":"https://b.zmtcdn.com/data/pictures/chains/6/16584126/d3e9875241a08229d3b1ba1220d3fd95_featured_v2.jpg",
    "rating":"2.5",
    "url":"https://www.zomato.com/melbourne/degani-southbank/info"
    }
  },
  {
    "type": "Feature",
    "geometry": {
       "type": "Point",
       "coordinates":  [ 144.9584593624,-37.8230328425 ]
    },
    "properties": {
    "name":"Gradi Crown",
    "image":"https://b.zmtcdn.com/data/pictures/chains/1/16573811/3c0ec3aa41455085defbcb9a99530593_featured_v2.jpg",
    "rating":"4.1",
    "url":"https://www.zomato.com/melbourne/gradi-crown-southbank/info"
    }
  },
  {
    "type": "Feature",
    "geometry": {
       "type": "Point",
       "coordinates":  [ 144.9593196809,-37.8278040004 ]
    },
    "properties": {
    "name":"Circolo",
    "image":"https://b.zmtcdn.com/data/pictures/6/17849626/78bd9aa512f9dbda55485a9218ed9791_featured_v2.jpg",
    "rating":"3.7",
    "url":"https://www.zomato.com/melbourne/circolo-southbank/info"
    }
  },
  {
    "type": "Feature",
    "geometry": {
       "type": "Point",
       "coordinates":  [ 144.9590313435,-37.8226543888 ]
    },
    "properties": {
    "name":"The Atlantic",
    "image":"https://b.zmtcdn.com/data/pictures/chains/4/16577194/23005fc1a0d976a2fa7292dd227d944f_featured_v2.jpg",
    "rating":"4.1",
    "url":"https://www.zomato.com/melbourne/the-atlantic-southbank/info"
    }
  },
  {
    "type": "Feature",
    "geometry": {
       "type": "Point",
       "coordinates":  [ 144.9649539962,-37.8225119053 ]
    },
    "properties": {
    "name":"Sopranos",
    "image":"https://b.zmtcdn.com/data/pictures/chains/4/16578534/7cecde7c6b793f4e2fdca185cf287e73_featured_v2.jpg",
    "rating":"3.2",
    "url":"https://www.zomato.com/melbourne/sopranos-southbank/info"
    }
  },
  {
    "type": "Feature",
    "geometry": {
       "type": "Point",
       "coordinates":  [ 144.9575078487,-37.8254666588 ]
    },
    "properties": {
    "name":"Mr. Hive Kitchen & Bar",
    "image":"https://b.zmtcdn.com/data/pictures/3/16578843/87109fa5a5c3caa8181c54d837e01925_featured_v2.jpg",
    "rating":"4.2",
    "url":"https://www.zomato.com/melbourne/mr-hive-kitchen-bar-southbank/info"
    }
  },
  {
    "type": "Feature",
    "geometry": {
       "type": "Point",
       "coordinates":  [ 144.9662481621,-37.8203502549 ]
    },
    "properties": {
    "name":"Lindt Chocolate Cafe",
    "image":"https://b.zmtcdn.com/data/pictures/chains/7/16577647/056ebb02754f487fe938aaddb0d3adc3_featured_v2.jpg",
    "rating":"3.8",
    "url":"https://www.zomato.com/melbourne/lindt-chocolate-cafe-southbank/info"
    }
  },
  {
    "type": "Feature",
    "geometry": {
       "type": "Point",
       "coordinates":  [ 144.9580037221,-37.8231986306 ]
    },
    "properties": {
    "name":"Gochi",
    "image":"https://b.zmtcdn.com/data/pictures/1/16581511/7bb4fdf371ace4f5a89aa770dd4857b5_featured_v2.JPG",
    "rating":"3.4",
    "url":"https://www.zomato.com/melbourne/gochi-southbank/info"
    }
  },
  {
    "type": "Feature",
    "geometry": {
       "type": "Point",
       "coordinates":  [ 144.9632615224,-37.8208044663 ]
    },
    "properties": {
    "name":"Soho Melbourne",
    "image":"https://b.zmtcdn.com/data/pictures/8/16586588/99cb308e189e842cc152dc956fea7d34_featured_v2.jpg",
    "rating":"3.2",
    "url":"https://www.zomato.com/melbourne/soho-melbourne-southbank/info"
    }
  },
  {
    "type": "Feature",
    "geometry": {
       "type": "Point",
       "coordinates":  [ 144.9586075544,-37.8252775709 ]
    },
    "properties": {
    "name":"Subway",
    "image":"https://b.zmtcdn.com/data/pictures/chains/9/16583719/6e20a9be99fac9e1c0b214aa2319a25a_featured_v2.jpg",
    "rating":"3.7",
    "url":"https://www.zomato.com/melbourne/subway-1-southbank/info"
    }
  },
  {
    "type": "Feature",
    "geometry": {
       "type": "Point",
       "coordinates":  [ 144.9676137418,-37.8198197642 ]
    },
    "properties": {
    "name":"Teatro",
    "image":"https://b.zmtcdn.com/data/pictures/0/16711180/2f23c5a883d6ccc070b8c1eb0fb96381_featured_v2.jpg",
    "rating":"4.0",
    "url":"https://www.zomato.com/melbourne/teatro-southbank/info"
    }
  },
  {
    "type": "Feature",
    "geometry": {
       "type": "Point",
       "coordinates":  [ 144.9574642628,-37.8236467332 ]
    },
    "properties": {
    "name":"Think Asia",
    "image":"https://b.zmtcdn.com/data/pictures/chains/0/16578910/8c893b62bb20ad81c8b1287d4e184911_featured_v2.jpg",
    "rating":"3.0",
    "url":"https://www.zomato.com/melbourne/think-asia-1-southbank/info"
    }
  },
  {
    "type": "Feature",
    "geometry": {
       "type": "Point",
       "coordinates":  [ 144.9576285482,-37.8234579054 ]
    },
    "properties": {
    "name":"Ten Miles",
    "image":"https://b.zmtcdn.com/data/pictures/1/16711241/7281258942bffd2981313404e0cf3cc5_featured_v2.jpg",
    "rating":"2.6",
    "url":"https://www.zomato.com/melbourne/ten-miles-southbank/info"
    }
  },
  {
    "type": "Feature",
    "geometry": {
       "type": "Point",
       "coordinates":  [ 144.9574682862,-37.823592442 ]
    },
    "properties": {
    "name":"Cucina Italian",
    "image":"https://b.zmtcdn.com/data/pictures/5/16711235/77e6d5d595c7dfe00329a8e5c30128d9_featured_v2.jpg",
    "rating":"3.0",
    "url":"https://www.zomato.com/melbourne/cucina-italian-southbank/info"
    }
  },
  {
    "type": "Feature",
    "geometry": {
       "type": "Point",
       "coordinates":  [ 144.9574592337,-37.8236297838 ]
    },
    "properties": {
    "name":"Tandoor Kitchen",
    "image":"https://b.zmtcdn.com/data/pictures/9/16711239/53d103fbe6921999b9933b953dc5f6d1_featured_v2.jpg",
    "rating":"3.0",
    "url":"https://www.zomato.com/melbourne/tandoor-kitchen-southbank/info"
    }
  },
  {
    "type": "Feature",
    "geometry": {
       "type": "Point",
       "coordinates":  [ 144.965082407,-37.8225847361 ]
    },
    "properties": {
    "name":"Southbank Noodle Bar",
    "image":"https://b.zmtcdn.com/images/res_avatar_476_320_1x_new.png",
    "rating":"3.0",
    "url":"https://www.zomato.com/melbourne/southbank-noodle-bar-1-southbank/info"
    }
  },
  {
    "type": "Feature",
    "geometry": {
       "type": "Point",
       "coordinates":  [ 144.9669287726,-37.8215868157 ]
    },
    "properties": {
    "name":"SPIRE",
    "image":"https://b.zmtcdn.com/data/pictures/2/16711702/65625917472afc968221fc5299ed4c0f_featured_v2.jpg",
    "rating":"3.2",
    "url":"https://www.zomato.com/melbourne/spire-southbank/info"
    }
  },
  {
    "type": "Feature",
    "geometry": {
       "type": "Point",
       "coordinates":  [ 144.9685897306,-37.8217478398 ]
    },
    "properties": {
    "name":"The Barre",
    "image":"https://b.zmtcdn.com/data/pictures/0/18227900/50f8cbb55a96f0190cc9573817e6b1a7_featured_v2.jpg",
    "rating":"3.2",
    "url":"https://www.zomato.com/melbourne/the-barre-southbank/info"
    }
  },
  {
    "type": "Feature",
    "geometry": {
       "type": "Point",
       "coordinates":  [ 144.9661707133,-37.8203637621 ]
    },
    "properties": {
    "name":"Damon Bradley",
    "image":"https://b.zmtcdn.com/data/pictures/2/18252282/d6dae5adaa52a8a0f06b2a6e932d4015_featured_v2.jpg",
    "rating":"3.5",
    "url":"https://www.zomato.com/melbourne/damon-bradley-southbank/info"
    }
  },
  {
    "type": "Feature",
    "geometry": {
       "type": "Point",
       "coordinates":  [ 144.9588489533,-37.8225529554 ]
    },
    "properties": {
    "name":"Fish & Chippery by The Atlantic",
    "image":"https://b.zmtcdn.com/data/pictures/chains/3/18239703/1ed0894053cac676c7d0604908b81dd2_featured_v2.jpg",
    "rating":"3.4",
    "url":"https://www.zomato.com/melbourne/fish-chippery-by-the-atlantic-southbank/info"
    }
  },
  {
    "type": "Feature",
    "geometry": {
       "type": "Point",
       "coordinates":  [ 144.9624266848,-37.8213405116 ]
    },
    "properties": {
    "name":"Criniti's",
    "image":"https://b.zmtcdn.com/data/pictures/6/18339986/00896731fa05eaa461f39875508b18e6_featured_v2.jpg",
    "rating":"2.1",
    "url":"https://www.zomato.com/melbourne/crinitis-southbank/info"
    }
  },
  {
    "type": "Feature",
    "geometry": {
       "type": "Point",
       "coordinates":  [ 144.9591255561,-37.822533887 ]
    },
    "properties": {
    "name":"Oyster Bar & Grill",
    "image":"https://b.zmtcdn.com/data/pictures/5/18106855/8ce5e3689c06719e7850ec05271d90ae_featured_v2.jpg",
    "rating":"3.6",
    "url":"https://www.zomato.com/melbourne/oyster-bar-grill-southbank/info"
    }
  },
  {
    "type": "Feature",
    "geometry": {
       "type": "Point",
       "coordinates":  [ 144.9663145468,-37.8201685695 ]
    },
    "properties": {
    "name":"Cups n Cones",
    "image":"https://b.zmtcdn.com/data/pictures/7/19208887/aedccf34ff0f3048ebf7626c89f317e0_featured_v2.jpg",
    "rating":"3.7",
    "url":"https://www.zomato.com/melbourne/cups-n-cones-southbank/info"
    }
  },
  {
    "type": "Feature",
    "geometry": {
       "type": "Point",
       "coordinates":  [ 144.9635277316,-37.8207305744 ]
    },
    "properties": {
    "name":"Hopscotch",
    "image":"https://b.zmtcdn.com/data/pictures/chains/4/18401494/23192ac7abaae09f3abcdc9381fb6747_featured_v2.jpg",
    "rating":"3.6",
    "url":"https://www.zomato.com/melbourne/hopscotch-southbank/info"
    }
  },
  {
    "type": "Feature",
    "geometry": {
       "type": "Point",
       "coordinates":  [ 144.9620625749,-37.8241631602 ]
    },
    "properties": {
    "name":"My Goodness Pizza",
    "image":"https://b.zmtcdn.com/data/pictures/8/18431958/db76c61e374a0924df5a297b38f3b1b7_featured_v2.jpg",
    "rating":"3.6",
    "url":"https://www.zomato.com/melbourne/my-goodness-pizza-southbank/info"
    }
  },
  {
    "type": "Feature",
    "geometry": {
       "type": "Point",
       "coordinates":  [ 144.960510917,-37.8248800608 ]
    },
    "properties": {
    "name":"Vegie Kitchen 天源素食館",
    "image":"https://b.zmtcdn.com/data/pictures/5/18465605/778c1128d8aea6d95d027b5caea3fb01_featured_v2.jpg",
    "rating":"4.0",
    "url":"https://www.zomato.com/melbourne/vegie-kitchen-southbank/info"
    }
  },
  {
    "type": "Feature",
    "geometry": {
       "type": "Point",
       "coordinates":  [ 144.9652527273,-37.8202223336 ]
    },
    "properties": {
    "name":"Pure South Kitchen",
    "image":"https://b.zmtcdn.com/data/pictures/0/18538150/03732bca6cfc8e13e5cd218683ea946e_featured_v2.jpg",
    "rating":"3.4",
    "url":"https://www.zomato.com/melbourne/pure-south-kitchen-southbank/info"
    }
  },
  {
    "type": "Feature",
    "geometry": {
       "type": "Point",
       "coordinates":  [ 144.9630378932,-37.8236795728 ]
    },
    "properties": {
    "name":"Roza’s Kitchen",
    "image":"https://b.zmtcdn.com/data/pictures/2/18634472/6be1bc8f4e739d9fa8ba05f39205642c_featured_v2.jpg",
    "rating":"3.8",
    "url":"https://www.zomato.com/melbourne/roza-s-kitchen-southbank/info"
    }
  },
  {
    "type": "Feature",
    "geometry": {
       "type": "Point",
       "coordinates":  [ 144.958092235,-37.8250010884 ]
    },
    "properties": {
    "name":"Kingpin",
    "image":"https://b.zmtcdn.com/data/pictures/4/18693574/25fb9981bbdef506b903de95ff7f0c88_featured_v2.jpg",
    "rating":"2.2",
    "url":"https://www.zomato.com/melbourne/kingpin-southbank/info"
    }
  },
  {
    "type": "Feature",
    "geometry": {
       "type": "Point",
       "coordinates":  [ 144.9641986191,-37.8208976918 ]
    },
    "properties": {
    "name":"Asado",
    "image":"https://b.zmtcdn.com/data/pictures/0/18708830/4a4ff89949fe1b53aebdd73247124114_featured_v2.jpg",
    "rating":"4.4",
    "url":"https://www.zomato.com/melbourne/asado-southbank/info"
    }
  },
  {
    "type": "Feature",
    "geometry": {
       "type": "Point",
       "coordinates":  [ 144.956728667,-37.8236695091 ]
    },
    "properties": {
    "name":"Merrywell Bar & Dining",
    "image":"https://b.zmtcdn.com/data/pictures/6/18734346/f3374baeae760c8c3998cbedcc562cb8_featured_v2.jpg",
    "rating":"3.5",
    "url":"https://www.zomato.com/melbourne/merrywell-bar-dining-southbank/info"
    }
  },
  {
    "type": "Feature",
    "geometry": {
       "type": "Point",
       "coordinates":  [ 144.9584352225,-37.8272182154 ]
    },
    "properties": {
    "name":"Edwin Wine Bar & Cellar",
    "image":"https://b.zmtcdn.com/data/pictures/9/18948719/f7f67b0f184a300f7814f091306c804e_featured_v2.jpg",
    "rating":"4.0",
    "url":"https://www.zomato.com/melbourne/edwin-wine-bar-cellar-southbank/info"
    }
  },
  {
    "type": "Feature",
    "geometry": {
       "type": "Point",
       "coordinates":  [ 144.9501364678,-37.8051122931 ]
    },
    "properties": {
    "name":"La Porchetta",
    "image":"https://b.zmtcdn.com/data/pictures/chains/3/16572773/f6d85ce5f4afcf497aeb09752b43b292_featured_v2.jpg",
    "rating":"3.2",
    "url":"https://www.zomato.com/melbourne/la-porchetta-north-melbourne/info"
    }
  },
  {
    "type": "Feature",
    "geometry": {
       "type": "Point",
       "coordinates":  [ 144.9511835352,-37.8036728028 ]
    },
    "properties": {
    "name":"The Leveson",
    "image":"https://b.zmtcdn.com/data/pictures/chains/9/16571749/37ab3a950a5e93193a2980b5327fe477_featured_v2.jpeg",
    "rating":"4.0",
    "url":"https://www.zomato.com/melbourne/the-leveson-north-melbourne/info"
    }
  },